id,store_id,display_name,store,latitude,longitude,address,city,state,zip,icon
1,2104,"Newburgh Supercenter",walmart,41.497674,-74.074726,"1201 Route 300",Newburgh,NY,12550,walmart-icon.png
2,1810,"Fishkill Supercenter",walmart,41.530779,-73.897109,"26 W Merritt Blvd",Fishkill,NY,12524,walmart-icon.png
3,2531,"Mohegan Lake Store",walmart,41.310524,-73.8667982,"3133 E Main St","Mohegan Lake",NY,10547,walmart-icon.png
4,2637,"Monroe Supercenter",walmart,41.316942,-74.148316,"288 Larkin Dr",Monroe,NY,10950,walmart-icon.png
5,1959,"Middletown Supercenter",walmart,41.455314,-74.37827,"470 Route 211 E",Middletown,NY,10940,walmart-icon.png
6,2905,"Suffern Store",walmart,41.113316,-74.107074,"250 Route 59",Suffern,NY,10901,walmart-icon.png
7,4570,"Napanoch Supercenter",walmart,41.7424997,-74.3706537,"7500 Route 209",Napanoch,NY,12458,walmart-icon.png
8,3543,"Danbury Store",walmart,41.407877,-73.412984,"67 Newtown Rd",Danbury,CT,06810,walmart-icon.png
9,3546,"New Milford Store",walmart,41.551962,-73.419723,"164 Danbury Rd","New Milford",CT,06776,walmart-icon.png
10,3443,"Riverdale Store",walmart,40.992839,-74.311823,"48 State Rt 23",Riverdale,NJ,07457,walmart-icon.png
11,2954,"Norwalk Store",walmart,41.159154,-73.417392,"650 Main Ave",Norwalk,CT,06851,walmart-icon.png
12,3547,"Norwalk Store",walmart,41.096203,-73.449547,"680 Connecticut Ave",Norwalk,CT,06854,walmart-icon.png
13,2090,"Franklin Store",walmart,41.116058,-74.578954,"230 State Highway",Franklin,NJ,07416,walmart-icon.png
14,2504,"Kingston Supercenter",walmart,41.972503,-73.985511,"601 Frank Stottile Blvd",Kingston,NY,12401,walmart-icon.png
15,3562,"Saddle Brook Store",walmart,40.8922201,-74.0938144,"189 Us Highway 46","Saddle Brook",NJ,07663,walmart-icon.png
16,2064,"Milford Supercenter",walmart,41.34997,-74.733605,"220 Route 6 & 209",Milford,PA,18337,walmart-icon.png
17,2547,"Monticello Supercenter",walmart,41.666909,-74.679828,"41 Anawana Lake Rd",Monticello,NY,12701,walmart-icon.png
18,5752,"Garfield Supercenter",walmart,40.866688,-74.100931,"174 Passaic St",Garfield,NJ,07026,walmart-icon.png
19,3159,"Teterboro Supercenter",walmart,40.8626458,-74.062491,"1 Teterboro Landing Drive",Teterboro,NJ,07608,walmart-icon.png
20,5077,"Boonton Store",walmart,40.9070884,-74.4040426,"300 Wootton St",Boonton,NJ,07005,walmart-icon.png
21,3795,"North Bergen Supercenter",walmart,40.814107,-74.013451,"2100 88th St","North Bergen",NJ,07047,walmart-icon.png
22,3520,"Secaucus Supercenter",walmart,40.793,-74.042466,"400 Park Pl",Secaucus,NJ,07094,walmart-icon.png
23,2604,"Newton Store",walmart,41.069708,-74.738846,"26 Hampton House Rd",Newton,NJ,07860,walmart-icon.png
24,5178,"Rockaway Store",walmart,40.907569,-74.562167,"220 Enterprise Dr",Rockaway,NJ,07866,walmart-icon.png
25,2163,"Shelton Store",walmart,41.29143,-73.112949,"465 Bridgeport Ave",Shelton,CT,06484,walmart-icon.png
26,5447,"Kearny Supercenter",walmart,40.7477247,-74.1374739,"150 Harrison Ave",Kearny,NJ,07032,walmart-icon.png
28,2585,"Stratford Store",walmart,41.2013398,-73.1187591,"150 Barnum Avenue Cutoff",Stratford,CT,06614,walmart-icon.png
29,3598,"Cedar Knolls Store",walmart,40.809705,-74.457207,"235 Ridgedale Ave","Cedar Knolls",NJ,07927,walmart-icon.png
31,2284,"Naugatuck Supercenter",walmart,41.4706,-73.028,"1100 New Haven Rd",Naugatuck,CT,06770,walmart-icon.png
33,2569,"Ledgewood Store",walmart,40.873613,-74.653315,"2569 To 461 Rt 10 Suite 29",Ledgewood,NJ,07852,walmart-icon.png
35,3420,"Westbury Store",walmart,40.743299,-73.600926,"1220 Old Country Rd",Westbury,NY,11590,walmart-icon.png
37,5294,"Milford Store",walmart,41.238029,-73.03147,"1365 Boston Post Rd",Milford,CT,06460,walmart-icon.png
39,3548,"Waterbury Store",walmart,41.56332,-73.004433,"910 Wolcott St",Waterbury,CT,06705,walmart-icon.png
41,3291,"Flanders Store",walmart,40.881852,-74.708272,"40 International Dr S",Flanders,NJ,07836,walmart-icon.png
43,5867,"Bayonne Supercenter",walmart,40.659918,-74.106726,"500 Bayonne Crossing Way",Bayonne,NJ,07002,walmart-icon.png
45,3292,"Union Store",walmart,40.6870876,-74.2999066,"900 Springfield Rd",Union,NJ,07083,walmart-icon.png
46,2916,"East Meadow Store",walmart,40.726907,-73.543756,"2465 Hempstead Tpke","East Meadow",NY,11554,walmart-icon.png
48,3803,"West Haven Store",walmart,41.270691,-72.9775,"515 Saw Mill Rd","West Haven",CT,06516,walmart-icon.png
50,2351,"Catskill Supercenter",walmart,42.212559,-73.882972,"30 Catskill Cmns",Catskill,NY,12414,walmart-icon.png
52,2144,"Torrington Store",walmart,41.8184691,-73.0780037,"970 Torringford St",Torrington,CT,06790,walmart-icon.png
54,4184,"Levittown Neighborhood Market",walmart,40.726434,-73.512899,"3335 Hempstead Tpke",Levittown,NY,11756,walmart-icon.png
56,5293,"Valley Stream Supercenter",walmart,40.660941,-73.726722,"77 Green Acres Rd","Valley Stream",NY,11581,walmart-icon.png
58,2583,"Uniondale Store",walmart,40.695901,-73.578063,"1123 Jerusalem Ave",Uniondale,NY,11553,walmart-icon.png
60,3545,"Hamden Store",walmart,41.3737,-72.918988,"2300 Dixwell Ave",Hamden,CT,06514,walmart-icon.png
62,5202,"Commack Store",walmart,40.811786,-73.289495,"85 Crooked Hill Rd",Commack,NY,11725,walmart-icon.png
65,5295,"Farmingdale Store",walmart,40.726881,-73.420396,"965 Broadhollow Rd",Farmingdale,NY,11735,walmart-icon.png
67,3469,"Linden Store",walmart,40.612665,-74.24755,"1601 W Edgar Rd",Linden,NJ,07036,walmart-icon.png
68,5439,"New Haven Supercenter",walmart,41.320072,-72.876921,"315 Foxon Blvd","New Haven",CT,06513,walmart-icon.png
70,5111,"Watchung Store",walmart,40.6379301,-74.4248314,"1501 Us Highway 22",Watchung,NJ,07069,walmart-icon.png
72,2719,"Bristol Store",walmart,41.697557,-72.897663,"1400 Farmington Ave",Bristol,CT,06010,walmart-icon.png
80,2097,"Hudson Supercenter",walmart,42.278396,-73.750352,"460 Fairview Ave",Hudson,NY,12534,walmart-icon.png
84,2897,"Southington Store",walmart,41.623078,-72.869537,"235 Queen St",Southington,CT,06489,walmart-icon.png
89,2371,"Wallingford Supercenter",walmart,41.477509,-72.810515,"844 N Colony Rd",Wallingford,CT,06492,walmart-icon.png
91,2899,"Avon Store",walmart,41.810565,-72.853767,"255 W Main St",Avon,CT,06001,walmart-icon.png
93,2232,"Branford Store",walmart,41.281365,-72.830821,"120 Commercial Pkwy",Branford,CT,06405,walmart-icon.png
99,2915,"East Setauket Store",walmart,40.903048,-73.078212,"3990 Nesconset Hwy","East Setauket",NY,11733,walmart-icon.png
138,2480,"Honesdale Supercenter",walmart,41.5572964,-75.2264437,"723a Old Willow Ave",Honesdale,PA,18431,walmart-icon.png
155,2965,"Newington Store",walmart,41.663123,-72.718375,"3164 Berlin Tpke",Newington,CT,06111,walmart-icon.png
157,5095,"Hartford Supercenter",walmart,41.739791,-72.713347,"495 Flatbush Avenue",Hartford,CT,06106,walmart-icon.png
159,2299,"Cromwell Supercenter",walmart,41.605477,-72.711858,"161 Berlin Rd",Cromwell,CT,06416,walmart-icon.png
163,2900,"Rocky Hill Store",walmart,41.679131,-72.657462,"80 Town Line Rd","Rocky Hill",CT,06067,walmart-icon.png
169,2282,"East Windsor Supercenter",walmart,41.919366,-72.606719,"44 Prospect Hill Road","East Windsor",CT,06088,walmart-icon.png
171,2174,"Westfield Supercenter",walmart,42.1084095,-72.7084495,"141 Springfield Rd",Westfield,MA,01085,walmart-icon.png
173,1891,"Manchester Supercenter",walmart,41.806569,-72.537633,"420 Buckland Hills Dr",Manchester,CT,06042,walmart-icon.png
174,2228,"Pittsfield Store",walmart,42.464755,-73.197985,"555 Hubbard Ave Ste 12",Pittsfield,MA,01201,walmart-icon.png
175,3583,"Glenmont Supercenter",walmart,42.608957,-73.792705,"311 Route 9w",Glenmont,NY,12077,walmart-icon.png
178,3544,"Guilford Store",walmart,41.287176,-72.678888,"900 Boston Post Rd",Guilford,CT,06437,walmart-icon.png
180,5278,"Chicopee Supercenter",walmart,42.172343,-72.573946,"591 Memorial Dr",Chicopee,MA,01020,walmart-icon.png
181,2503,"Hackettstown Supercenter",walmart,40.816326,-74.842097,"1885 State Route 57 Ste 100",Hackettstown,NJ,07840,walmart-icon.png
184,1967,"Springfield Supercenter",walmart,42.136021,-72.506862,"1105 Boston Rd",Springfield,MA,01119,walmart-icon.png
187,2262,"Oneonta Supercenter",walmart,42.447466,-75.039081,"5054 State Highway 23",Oneonta,NY,13820,walmart-icon.png
191,2368,"East Stroudsburg Supercenter",walmart,40.98995,-75.182865,"355 Lincoln Ave","East Stroudsburg",PA,18301,walmart-icon.png
192,1940,"Rensselaer Supercenter",walmart,42.641387,-73.7018126,"279 Troy Rd",Rensselaer,NY,12144,walmart-icon.png
195,2135,"Cobleskill Supercenter",walmart,42.6823913,-74.4552524,"139 Merchant Pl",Cobleskill,NY,12043,walmart-icon.png
198,2901,"Northampton Store",walmart,42.341605,-72.643749,"180 N King St",Northampton,MA,01060,walmart-icon.png
345,2286,"Centereach Store",walmart,40.863036,-73.0812114,"161 Centereach Mall",Centereach,NY,11720,walmart-icon.png
349,2917,"Islandia Store",walmart,40.800592,-73.178586,"1850 Veterans Hwy",Islandia,NY,11749,walmart-icon.png
484,2152,"Albany Supercenter",walmart,42.694877,-73.847121,"141 Washington Ave Extension",Albany,NY,12205,walmart-icon.png
492,1997,"Latham Supercenter",walmart,42.746495,-73.764381,"800 Loudon Road",Latham,NY,12110,walmart-icon.png
495,2370,"Troy Supercenter",walmart,42.745784,-73.638741,"760 Hoosick Rd",Troy,NY,12180,walmart-icon.png
500,2264,"Schenectady Store",walmart,42.7854,-73.941664,"1320 Altamont Ave",Schenectady,NY,12303,walmart-icon.png
667,2365,"Mount Pocono Supercenter",walmart,41.125512,-75.372294,"3271 Route 940","Mount Pocono",PA,18344,walmart-icon.png
669,2633,"Piscataway Store",walmart,40.554659,-74.441208,"1303 Centennial Ave",Piscataway,NJ,08854,walmart-icon.png
732,1984,"North Adams Supercenter",walmart,42.664417,-73.110629,"1415 Curran Memorial Hwy","North Adams",MA,01247,walmart-icon.png
743,2683,"Hadley Store",walmart,42.354638,-72.552232,"337 Russell St",Hadley,MA,01035,walmart-icon.png
748,2844,"Clifton Park Supercenter",walmart,42.846925,-73.74784,"1549 Route 9","Clifton Park",NY,12065,walmart-icon.png
750,2874,"Glenville Supercenter",walmart,42.84173,-73.944171,"200 Dutch Meadows Ln",Glenville,NY,12302,walmart-icon.png
1001,2653,"Portales Supercenter",walmart,34.198144,-103.31911,"1604 E Spruce St",Portales,NM,88130,walmart-icon.png
1002,821,"Clovis Supercenter",walmart,34.437698,-103.200403,"3728 N Prince St",Clovis,NM,88101,walmart-icon.png
1003,1051,"Levelland Supercenter",walmart,33.596282,-102.361308,"407 E State Road 114",Levelland,TX,79336,walmart-icon.png
1004,549,"Hobbs Supercenter",walmart,32.743608,-103.160521,"3800 N Lovington Hwy",Hobbs,NM,88240,walmart-icon.png
1005,611,"Roswell Supercenter",walmart,33.450048,-104.526774,"4500 N Main St Ste A",Roswell,NM,88201,walmart-icon.png
1006,626,"Seminole Store",walmart,32.7249201,-102.6666609,"2000 Hobbs Hwy",Seminole,TX,79360,walmart-icon.png
1007,3427,"Artesia Supercenter",walmart,32.847687,-104.426641,"604 N 26th St",Artesia,NM,88210,walmart-icon.png
1008,4299,"Lubbock Supercenter",walmart,33.5162977,-101.9553076,"6315 82nd St",Lubbock,TX,79424,walmart-icon.png
1009,945,"Lubbock Supercenter",walmart,33.589118,-101.93805,"702 W Loop 289",Lubbock,TX,79416,walmart-icon.png
1010,861,"Lubbock Supercenter",walmart,33.527803,-101.903621,"4215 S Loop 289",Lubbock,TX,79423,walmart-icon.png
1011,6898,"Lubbock Supercenter",walmart,33.489339,-101.901918,"11415 Quaker Avenue",Lubbock,TX,79423,walmart-icon.png
1012,5702,"Lubbock Neighborhood Market",walmart,33.504484,-101.868925,"9809 University Ave",Lubbock,TX,79423,walmart-icon.png
1013,3826,"Lubbock Supercenter",walmart,33.590452,-101.858844,"1911 Marsha Sharp Fwy",Lubbock,TX,79415,walmart-icon.png
1014,868,"Carlsbad Supercenter",walmart,32.393959,-104.222987,"2401 S Canal St",Carlsbad,NM,88220,walmart-icon.png
1015,3384,"Hereford Supercenter",walmart,34.839808,-102.40769,"300 W 15th St",Hereford,TX,79045,walmart-icon.png
1211,2156,"Middle Island Store",walmart,40.880134,-72.947124,"750 Middle Country Rd","Middle Island",NY,11953,walmart-icon.png
1307,1884,"Dickson City Supercenter",walmart,41.465598,-75.6422658,"900 Commerce Blvd","Dickson City",PA,18519,walmart-icon.png
1313,4276,"Taylor Supercenter",walmart,41.3954756,-75.6860817,"1325 Main",Taylor,PA,18517,walmart-icon.png
1997,2146,"Amsterdam Supercenter",walmart,42.964506,-74.183699,"101 Sanford Farms Shopping Ctr",Amsterdam,NY,12010,walmart-icon.png
2006,2289,"Bennington Supercenter",walmart,42.897885,-73.210877,"210 Northside Dr",Bennington,VT,05201,walmart-icon.png
2013,1806,"Gloversville Supercenter",walmart,43.031276,-74.342248,"329 S Kingsboro Ave Ext",Gloversville,NY,12078,walmart-icon.png
2280,927,"Plainview Supercenter",walmart,34.196077,-101.75319,"1501 N Interstate 27",Plainview,TX,79072,walmart-icon.png
2599,2543,"Pittston Supercenter",walmart,41.315535,-75.759593,"390 Route 315 Hwy",Pittston,PA,18640,walmart-icon.png
2604,1623,"Wilkes Barre Supercenter",walmart,41.238458,-75.858654,"2150 Wilkes Barre Twnsp Mktpl","Wilkes Barre",PA,18702,walmart-icon.png
2606,2024,"Tunkhannock Supercenter",walmart,41.523981,-75.94744,"808 Hunter Hwy",Tunkhannock,PA,18657,walmart-icon.png
2607,2252,"Easton Supercenter",walmart,40.714538,-75.281208,"3722 Easton Nazareth Hwy",Easton,PA,18045,walmart-icon.png
2608,2497,"Phillipsburg Supercenter",walmart,40.674234,-75.144632,"1300 Us Highway 22",Phillipsburg,NJ,08865,walmart-icon.png
2612,2582,"Clinton Store",walmart,40.6284856,-74.9213196,"Route 513 And I-78",Clinton,NJ,08809,walmart-icon.png
2614,3563,"Bethlehem Store",walmart,40.672452,-75.342024,"3926 Linden St",Bethlehem,PA,18020,walmart-icon.png
2618,2169,"Lehighton Supercenter",walmart,40.8096416,-75.7382802,"1731 Blakeslee Boulevard Dr E",Lehighton,PA,18235,walmart-icon.png
2621,2145,"Whitehall Supercenter",walmart,40.645122,-75.487238,"2601 Macarthur Rd Relocation",Whitehall,PA,18052,walmart-icon.png
2622,2294,"Flemington Supercenter",walmart,40.527484,-74.850912,"152 Route 31 North",Flemington,NJ,08822,walmart-icon.png
2623,2651,"Manville Supercenter",walmart,40.546574,-74.58374,"100 North Main Street",Manville,NJ,08835,walmart-icon.png
2625,2255,"Hazle Township Supercenter",walmart,40.986535,-76.01243,"761 Airport Rd","Hazle Township",PA,18202,walmart-icon.png
2629,5732,"Johnson City Supercenter",walmart,42.115453,-75.946979,"2 Gannett Dr","Johnson City",NY,13790,walmart-icon.png
2630,5201,"Edison Store",walmart,40.53197,-74.376319,"2220 State Route 27",Edison,NJ,08817,walmart-icon.png
2639,152,"De Soto Supercenter",walmart,38.150177,-90.574504,"12862 State Route 21","De Soto",MO,63020,walmart-icon.png
2642,173,"Potosi Supercenter",walmart,37.92381,-90.771606,"#1 Memorial Drive",Potosi,MO,63664,walmart-icon.png
2645,69,"Festus Supercenter",walmart,38.211942,-90.387955,"650 S Truman Blvd",Festus,MO,63028,walmart-icon.png
2648,65,"Sullivan Supercenter",walmart,38.22075,-91.154792,"350 Park Ridge Rd",Sullivan,MO,63080,walmart-icon.png
2651,99,"Union Supercenter",walmart,38.4344195,-90.9700946,"1445 E Central Ct",Union,MO,63084,walmart-icon.png
2654,95,"Desloge Supercenter",walmart,37.883896,-90.513307,"407 No. State St",Desloge,MO,63601,walmart-icon.png
2657,295,"Eureka Supercenter",walmart,38.50661,-90.656737,"131 Erka Twn Cntr Dr",Eureka,MO,63025,walmart-icon.png
2659,313,"High Ridge Supercenter",walmart,38.462144,-90.521836,"2700 Ridge Point Dr","High Ridge",MO,63049,walmart-icon.png
2662,1514,"Arnold Supercenter",walmart,38.436729,-90.377786,"2201 Michigan Ave",Arnold,MO,63010,walmart-icon.png
2665,172,"Washington Supercenter",walmart,38.5404591,-90.9952384,"1701 A Roy Dr",Washington,MO,63090,walmart-icon.png
2668,805,"Fenton Supercenter",walmart,38.510098,-90.438772,"653 Gravois Bluffs Blvd",Fenton,MO,63026,walmart-icon.png
2670,37,"Farmington Supercenter",walmart,37.7894913,-90.4353609,"707 Walton Dr",Farmington,MO,63640,walmart-icon.png
2672,1177,"Manchester Supercenter",walmart,38.596021,-90.506779,"201 Highlands Boulevard Dr",Manchester,MO,63011,walmart-icon.png
2675,2694,"Kirkwood Supercenter",walmart,38.563071,-90.402996,"1202 S Kirkwood Rd",Kirkwood,MO,63122,walmart-icon.png
2678,895,"Cuba Store",walmart,38.073249,-91.40187,"100 Ozark Dr",Cuba,MO,65453,walmart-icon.png
2680,2213,"Saint Louis Supercenter",walmart,38.494602,-90.29602,"3270 Telegraph Rd","Saint Louis",MO,63125,walmart-icon.png
2683,328,"Waterloo Supercenter",walmart,38.358741,-90.157744,"961 N Market St",Waterloo,IL,62298,walmart-icon.png
2686,2600,"Chesterfield Supercenter",walmart,38.665861,-90.591551,"100 Thf Blvd",Chesterfield,MO,63005,walmart-icon.png
2689,3061,"Shrewsbury Supercenter",walmart,38.58034,-90.328063,"7437 Watson Road",Shrewsbury,MO,63119,walmart-icon.png
2692,5150,"Maplewood Supercenter",walmart,38.621552,-90.330829,"1900 Maplewood Commons Dr",Maplewood,MO,63143,walmart-icon.png
2695,354,"Owensville Supercenter",walmart,38.3531394,-91.4818482,"1888 Highway 28",Owensville,MO,65066,walmart-icon.png
2698,648,"Saint Peters Supercenter",walmart,38.745103,-90.588571,"1661 Jungermann Rd","Saint Peters",MO,63304,walmart-icon.png
2701,5313,"Lake Saint Louis Supercenter",walmart,38.772401,-90.786605,"6100 Ronald Reagan Dr","Lake Saint Louis",MO,63367,walmart-icon.png
2704,747,"Cahokia Store",walmart,38.556061,-90.166315,"1511 Camp Jackson Rd",Cahokia,IL,62206,walmart-icon.png
2707,5427,"St. Peters Neighborhood Market",walmart,38.774005,-90.626038,"3031 Mid Rivers Mall Drive","St. Peters",MO,63376,walmart-icon.png
2710,2616,"O Fallon Supercenter",walmart,38.7940705,-90.7026231,"1307 Highway K","O Fallon",MO,63366,walmart-icon.png
2713,5421,"St. Peters Neighborhood Market",walmart,38.778781,-90.580158,"45 Sutters Mill Road","St. Peters",MO,63376,walmart-icon.png
2716,1188,"Bridgeton Supercenter",walmart,38.744895,-90.418728,"11900 St Charles Rock Rd",Bridgeton,MO,63044,walmart-icon.png
2719,1161,"Saint Charles Supercenter",walmart,38.782214,-90.527967,"2897 Veterans Memorial Pkwy","Saint Charles",MO,63303,walmart-icon.png
2722,243,"Wentzville Supercenter",walmart,38.814137,-90.879016,"1971 Wentzville Pkwy",Wentzville,MO,63385,walmart-icon.png
2725,337,"Fredericktown Supercenter",walmart,37.5589096,-90.3197291,"1025 Walton Dr",Fredericktown,MO,63645,walmart-icon.png
2728,1265,"Saint Louis Supercenter",walmart,38.765978,-90.283606,"10741 West Florissant Ave","Saint Louis",MO,63136,walmart-icon.png
2731,1021,"Warrenton Supercenter",walmart,38.82334,-91.142661,"500 Warren County Ctr",Warrenton,MO,63383,walmart-icon.png
2734,5927,"Florissant Supercenter",walmart,38.8111037,-90.2925148,"3390 N Highway 67",Florissant,MO,63033,walmart-icon.png
2736,201,"Belleville Supercenter",walmart,38.522079,-89.922955,"2608 Green Mount Commons Dr",Belleville,IL,62221,walmart-icon.png
2738,1761,"Granite City Supercenter",walmart,38.736533,-90.141487,"379 W Pontoon Rd","Granite City",IL,62040,walmart-icon.png
2741,1418,"O Fallon Supercenter",walmart,38.59509,-89.954009,"1530 West Hwy 50","O Fallon",IL,62269,walmart-icon.png
2743,361,"Collinsville Supercenter",walmart,38.674715,-90.017291,"1040 Collinsville Crossing Blvd",Collinsville,IL,62234,walmart-icon.png
2747,352,"Chester Store",walmart,37.925334,-89.804487,"Hwy 150/2206 State S",Chester,IL,62233,walmart-icon.png
2750,27,"Salem Supercenter",walmart,37.634119,-91.546043,"1101 W Highway 32",Salem,MO,65560,walmart-icon.png
2751,2425,"Collinsville Neighborhood Market",walmart,38.692651,-89.986908,"1101 Belt Line Rd",Collinsville,IL,62234,walmart-icon.png
2754,101,"Rolla Supercenter",walmart,37.937606,-91.779138,"500 S Bishop Ave",Rolla,MO,65401,walmart-icon.png
2757,82,"Perryville Supercenter",walmart,37.705668,-89.896103,"1750 S Perryville Blvd",Perryville,MO,63775,walmart-icon.png
2759,222,"Sparta Supercenter",walmart,38.1414384,-89.7017327,"1410 N Market St",Sparta,IL,62286,walmart-icon.png
2762,60,"Troy Supercenter",walmart,38.988635,-90.982017,"101 Highway 47 E",Troy,MO,63379,walmart-icon.png
2764,256,"Glen Carbon Supercenter",walmart,38.7753749,-89.952569,"400 Junction Dr","Glen Carbon",IL,62034,walmart-icon.png
2765,2120,"Norwich Supercenter",walmart,42.496892,-75.526931,"5396 State Highway 12",Norwich,NY,13815,walmart-icon.png
2767,1071,"Wood River Supercenter",walmart,38.870255,-90.070338,"610 Wesley Dr","Wood River",IL,62095,walmart-icon.png
2770,4695,"Godfrey Supercenter",walmart,38.964652,-90.196316,"6660 Godfrey Rd",Godfrey,IL,62035,walmart-icon.png
2773,253,"Jerseyville Supercenter",walmart,39.103491,-90.318482,"1316 S State St",Jerseyville,IL,62052,walmart-icon.png
2776,435,"Highland Supercenter",walmart,38.7607786,-89.6842294,"12495 State Route 143",Highland,IL,62249,walmart-icon.png
2781,1835,"Vestal Supercenter",walmart,42.095462,-76.013283,"2405 Vestal Pkwy E",Vestal,NY,13850,walmart-icon.png
2786,5281,"Woodbridge Store",walmart,40.536097,-74.293494,"360 Us Highway 9 Route N",Woodbridge,NJ,07095,walmart-icon.png
2837,2208,"Sayre Supercenter",walmart,41.976115,-76.542792,"1887 Elmira St",Sayre,PA,18840,walmart-icon.png
2840,3634,"Tamaqua Supercenter",walmart,40.836824,-75.988013,"35 Plaza Dr",Tamaqua,PA,18252,walmart-icon.png
2841,1781,"Cortland Supercenter",walmart,42.569011,-76.218215,"819 Bennie Rd",Cortland,NY,13045,walmart-icon.png
2901,2285,"Herkimer Supercenter",walmart,43.021424,-74.997828,"103 N Caroline St",Herkimer,NY,13350,walmart-icon.png
3028,436,"Carlyle Supercenter",walmart,38.629436,-89.376727,"2591 12th St",Carlyle,IL,62231,walmart-icon.png
3031,334,"Carlinville Supercenter",walmart,39.267994,-89.894417,"18600 Shipman Blackt",Carlinville,IL,62626,walmart-icon.png
3036,213,"Litchfield Supercenter",walmart,39.185505,-89.668379,"1205 W Ferdon St",Litchfield,IL,62056,walmart-icon.png
3426,145,"Bowling Green Supercenter",walmart,39.330546,-91.181652,"3 Town Center Dr","Bowling Green",MO,63334,walmart-icon.png
3433,5240,"Ithaca Supercenter",walmart,42.427633,-76.513975,"135 Fairgrounds Memorial Pkwy",Ithaca,NY,14850,walmart-icon.png
3436,480,"Pittsfield Store",walmart,39.604775,-90.822308,"151 Shetland Dr",Pittsfield,IL,62363,walmart-icon.png
3440,200,"Jacksonville Supercenter",walmart,39.71992,-90.270971,"1941 W Morton Ave",Jacksonville,IL,62650,walmart-icon.png
4133,1677,"New Hartford Supercenter",walmart,43.095414,-75.312346,"4765 Commercial Dr","New Hartford",NY,13413,walmart-icon.png
4139,2093,"Utica Supercenter",walmart,43.12345,-75.225657,"710 Horatio St",Utica,NY,13502,walmart-icon.png
4639,2003,"North Brunswick Supercenter",walmart,40.4618576,-74.4663322,"979 Route #1 South","North Brunswick",NJ,08902,walmart-icon.png
4641,3078,"East Brunswick Supercenter",walmart,40.4588509,-74.3988893,"290 State Route 18","East Brunswick",NJ,08816,walmart-icon.png
5247,851,"Ruidoso Downs Supercenter",walmart,33.324294,-105.614426,"26180 Us Highway 70","Ruidoso Downs",NM,88346,walmart-icon.png
5251,5726,"Alamogordo Neighborhood Market",walmart,32.916186,-105.930871,"2401 Indian Wells Road",Alamogordo,NM,88310,walmart-icon.png
5252,1306,"Alamogordo Supercenter",walmart,32.887165,-105.957543,"233 S New York Ave",Alamogordo,NM,88310,walmart-icon.png
5403,2603,"Gibsonia Store",walmart,40.623175,-79.946528,"300 Walmart Dr",Gibsonia,PA,15044,walmart-icon.png
5404,3838,"Tarentum Supercenter",walmart,40.564139,-79.804075,"2010 Village Center Dr",Tarentum,PA,15084,walmart-icon.png
5405,3738,"Natrona Heights Supercenter",walmart,40.646984,-79.712979,"100 Highlands Mall","Natrona Heights",PA,15065,walmart-icon.png
5406,5339,"Pittsburgh Store",walmart,40.488338,-79.888894,"877 Freeport Rd",Pittsburgh,PA,15238,walmart-icon.png
5407,1770,"Cranberry Township Supercenter",walmart,40.68772,-80.105554,"20245 Route 19","Cranberry Township",PA,16066,walmart-icon.png
5408,2588,"North Versailles Supercenter",walmart,40.387242,-79.824695,"100 Walmart Dr","North Versailles",PA,15137,walmart-icon.png
5409,1885,"Butler Supercenter",walmart,40.878144,-79.943131,"400 Butler Cmns",Butler,PA,16001,walmart-icon.png
5410,4643,"Economy Supercenter",walmart,40.658211,-80.226573,"1500 Economy Way",Economy,PA,15005,walmart-icon.png
5411,4644,"Moon Township Supercenter",walmart,40.515671,-80.224153,"7500 University Boulevard","Moon Township",PA,15108,walmart-icon.png
5412,2300,"Pittsburgh Supercenter",walmart,40.447309,-80.176247,"250 Summit Park Dr",Pittsburgh,PA,15275,walmart-icon.png
5413,2281,"West Mifflin Supercenter",walmart,40.341812,-79.946456,"2351 Century Dr","West Mifflin",PA,15122,walmart-icon.png
5414,5040,"Carnegie Store",walmart,40.38679,-80.096233,"2200 Washington Pike",Carnegie,PA,15106,walmart-icon.png
5415,5381,"Bethel Park Store",walmart,40.33898,-80.023429,"5055 Library Rd","Bethel Park",PA,15102,walmart-icon.png
5416,1820,"Kittanning Supercenter",walmart,40.814772,-79.54191,"1 Hilltop Plz",Kittanning,PA,16201,walmart-icon.png
5417,3228,"Delmont Supercenter",walmart,40.399049,-79.590241,"6700 Hollywood Blvd",Delmont,PA,15626,walmart-icon.png
5418,1883,"Monaca Supercenter",walmart,40.678581,-80.301528,"3942 Brodhead Road",Monaca,PA,15061,walmart-icon.png
5419,5241,"North Huntingdon Supercenter",walmart,40.316345,-79.686301,"915 Mills Dr","North Huntingdon",PA,15642,walmart-icon.png
5420,2059,"Greensburg Supercenter",walmart,40.3089103,-79.5813259,"2200 Greengate Centre Cir",Greensburg,PA,15601,walmart-icon.png
5421,3223,"Beaver Falls Supercenter",walmart,40.782333,-80.383772,"#100 Chippewa Town Centre","Beaver Falls",PA,15010,walmart-icon.png
5422,2420,"Belle Vernon Supercenter",walmart,40.138708,-79.84555,"100 Sara Way","Belle Vernon",PA,15012,walmart-icon.png
5423,2502,"Latrobe Supercenter",walmart,40.282491,-79.383027,"100 Colony Ln",Latrobe,PA,15650,walmart-icon.png
5424,1739,"Washington Supercenter",walmart,40.182683,-80.221633,"30 Trinity Point Dr",Washington,PA,15301,walmart-icon.png
5425,2318,"Indiana Supercenter",walmart,40.603414,-79.194569,"3100 Oakland Ave",Indiana,PA,15701,walmart-icon.png
5426,5356,"Blairsville Supercenter",walmart,40.442519,-79.226641,"300 Resort Plaza Dr",Blairsville,PA,15717,walmart-icon.png
5427,1707,"East Liverpool Supercenter",walmart,40.6641378,-80.5863982,"16280 Dresden Ave","East Liverpool",OH,43920,walmart-icon.png
5428,2287,"New Castle Supercenter",walmart,41.008938,-80.3945,"2501 W State St","New Castle",PA,16101,walmart-icon.png
5429,1948,"Weirton Supercenter",walmart,40.390234,-80.549497,"400 Three Springs Dr",Weirton,WV,26062,walmart-icon.png
5430,2611,"Mount Pleasant Supercenter",walmart,40.127905,-79.544724,"2100 Summit Ridge Plz","Mount Pleasant",PA,15666,walmart-icon.png
5431,2008,"Grove City Store",walmart,41.168113,-80.114575,"1566 W Main Street Ext","Grove City",PA,16127,walmart-icon.png
5432,4501,"West Brownsville Supercenter",walmart,40.0262886,-79.8989883,"134 Daniel Kendall Dr","West Brownsville",PA,15417,walmart-icon.png
5433,2193,"Steubenville Supercenter",walmart,40.3654533,-80.6694045,"100 Mall Dr",Steubenville,OH,43952,walmart-icon.png
5434,5379,"Connellsville Supercenter",walmart,40.0042345,-79.6076153,"1450 Morrell Ave",Connellsville,PA,15425,walmart-icon.png
5435,2540,"Clarion Supercenter",walmart,41.188708,-79.396144,"63 Perkins Rd",Clarion,PA,16214,walmart-icon.png
5436,2211,"Poland Supercenter",walmart,41.028956,-80.6307379,"1300 Doral Dr",Poland,OH,44514,walmart-icon.png
5437,2019,"Uniontown Supercenter",walmart,39.91435,-79.756686,"355 Walmart Dr",Uniontown,PA,15401,walmart-icon.png
5438,2597,"Cranberry Supercenter",walmart,41.348945,-79.718049,"10 Kimberly Ln",Cranberry,PA,16319,walmart-icon.png
5439,2664,"Punxsutawney Supercenter",walmart,40.927754,-78.980652,"21920 Route #119",Punxsutawney,PA,15767,walmart-icon.png
5440,1568,"Hermitage Supercenter",walmart,41.249775,-80.452895,"1275 N Hermitage Rd",Hermitage,PA,16148,walmart-icon.png
5441,2910,"Salem Supercenter",walmart,40.899615,-80.817636,"2875 E State St",Salem,OH,44460,walmart-icon.png
5442,5446,"Waynesburg Supercenter",walmart,39.8939064,-80.126499,"405 Murtha Dr",Waynesburg,PA,15370,walmart-icon.png
5443,3860,"Youngstown Supercenter",walmart,41.147472,-80.661758,"200 Goldie Rd",Youngstown,OH,44505,walmart-icon.png
5444,5088,"Triadelphia Supercenter",walmart,40.058354,-80.605164,"450 Stewart Ln",Triadelphia,WV,26059,walmart-icon.png
5445,2063,"Austintown Supercenter",walmart,41.097454,-80.774023,"6001 Mahoning Ave",Austintown,OH,44515,walmart-icon.png
5446,1765,"Somerset Supercenter",walmart,40.0520521,-79.0706838,"2028 N Center Ave",Somerset,PA,15501,walmart-icon.png
5447,2674,"Greenville Supercenter",walmart,41.415526,-80.358976,"45 Williamson Rd",Greenville,PA,16125,walmart-icon.png
5448,1935,"Johnstown Supercenter",walmart,40.276623,-78.845863,"150 Town Centre Dr",Johnstown,PA,15904,walmart-icon.png
5450,2663,"Ebensburg Supercenter",walmart,40.475399,-78.750382,"300 Walmart Dr",Ebensburg,PA,15931,walmart-icon.png
5451,2197,"Cortland Supercenter",walmart,41.274268,-80.771923,"2016 Millennium Blvd",Cortland,OH,44410,walmart-icon.png
5453,2199,"Saint Clairsville Supercenter",walmart,40.075712,-80.875137,"50739 Valley Plaza Dr","Saint Clairsville",OH,43950,walmart-icon.png
5455,2852,"Moundsville Supercenter",walmart,39.926686,-80.74758,"10 Walmart Dr",Moundsville,WV,26041,walmart-icon.png
5525,3215,"Morgantown Supercenter",walmart,39.6458746,-79.9985471,"5605 University Town Center Drive",Morgantown,WV,26501,walmart-icon.png
5529,2083,"Morgantown Supercenter",walmart,39.578766,-79.959297,"75 Retail Circle",Morgantown,WV,26508,walmart-icon.png
5534,4372,"Kingwood Supercenter",walmart,39.486923,-79.733622,"100 Walmart Dr",Kingwood,WV,26537,walmart-icon.png
5542,1714,"Fairmont Supercenter",walmart,39.424718,-80.190933,"32 Tygart Mall Loop",Fairmont,WV,26554,walmart-icon.png
5543,2894,"Oakland Supercenter",walmart,39.422278,-79.391102,"13164 Garrett Hwy",Oakland,MD,21550,walmart-icon.png
5544,2833,"Grafton Supercenter",walmart,39.358593,-79.996556,"#1 Wal-mart Lane",Grafton,WV,26354,walmart-icon.png
5547,2027,"Lavale Supercenter",walmart,39.624903,-78.835052,"12500 Country Club Mall Rd",Lavale,MD,21502,walmart-icon.png
5548,2684,"New Martinsville Supercenter",walmart,39.656581,-80.859604,"1142 S Bridge St","New Martinsville",WV,26155,walmart-icon.png
5550,1544,"Clarksburg Supercenter",walmart,39.263381,-80.285584,"550 Emily Dr",Clarksburg,WV,26301,walmart-icon.png
5551,2474,"Keyser Supercenter",walmart,39.4013763,-79.0114629,"R.r. #4 Box 82",Keyser,WV,26726,walmart-icon.png
5648,2541,"Alliance Supercenter",walmart,40.900025,-81.160834,"2700 W State St",Alliance,OH,44601,walmart-icon.png
5652,5285,"Canton Supercenter",walmart,40.8339887,-81.3291634,"3200 Atlantic Blvd Ne",Canton,OH,44705,walmart-icon.png
6041,2115,"New Philadelphia Supercenter",walmart,40.4959421,-81.470256,"231 Bluebell Dr Sw","New Philadelphia",OH,44663,walmart-icon.png
6043,5410,"Canton Supercenter",walmart,40.7940473,-81.4220487,"4004 Tuscarawas St W",Canton,OH,44708,walmart-icon.png
6048,2361,"North Canton Store",walmart,40.870859,-81.433352,"4572 Mega St Nw","North Canton",OH,44720,walmart-icon.png
6051,2914,"Massillon Supercenter",walmart,40.765473,-81.522918,"1 Massillon Marketplace Dr Sw",Massillon,OH,44646,walmart-icon.png
6100,1769,"Du Bois Supercenter",walmart,41.1281024,-78.7374441,"20 Industrial Dr","Du Bois",PA,15801,walmart-icon.png
7251,4348,"Duncansville Supercenter",walmart,40.370349,-78.432848,"200 Commerce Dr",Duncansville,PA,16635,walmart-icon.png
7302,1656,"Meadville Supercenter",walmart,41.6222542,-80.2138609,"16086 Conneaut Lake Rd",Meadville,PA,16335,walmart-icon.png
8153,2517,"Santa Ana Supercenter",walmart,33.737285,-117.915302,"3600 W Mcfadden Ave","Santa Ana",CA,92704,walmart-icon.png
8154,2495,"Westminster Store",walmart,33.767668,-117.993504,"13331 Beach Blvd",Westminster,CA,92683,walmart-icon.png
8155,4134,"Stanton Neighborhood Market",walmart,33.7749668,-117.9911038,"12840 Beach Blvd",Stanton,CA,90680,walmart-icon.png
8156,4171,"Garden Grove Supercenter",walmart,33.790787,-117.964352,"11822 Gilbert St","Garden Grove",CA,92841,walmart-icon.png
8157,2636,"Huntington Beach Store",walmart,33.700181,-117.985512,"8230 Talbert Ave","Huntington Beach",CA,92646,walmart-icon.png
8158,5639,"Anaheim Neighborhood Market",walmart,33.800975,-117.94235,"10912 Katella Ave",Anaheim,CA,92804,walmart-icon.png
8159,5640,"Anaheim Neighborhood Market",walmart,33.819473,-117.908042,"1120 S Anaheim Blvd",Anaheim,CA,92805,walmart-icon.png
8160,5601,"Huntington Beach Neighborhood Market",walmart,33.6555402,-117.9870451,"21132 Beach Blvd","Huntington Beach",CA,92648,walmart-icon.png
8161,2242,"Anaheim Supercenter",walmart,33.8363,-117.938,"440 N Euclid St",Anaheim,CA,92801,walmart-icon.png
8162,3101,"Anaheim Neighborhood Market",walmart,33.833236,-117.995057,"121 N Beach Blvd",Anaheim,CA,92801,walmart-icon.png
8163,5032,"Buena Park Store",walmart,33.84467,-117.986649,"8450 La Palma Ave","Buena Park",CA,90620,walmart-icon.png
8164,5644,"Irvine Supercenter",walmart,33.698789,-117.835671,"16555 Von Karman Ave, Ste A",Irvine,CA,92606,walmart-icon.png
8165,5930,"Anaheim Supercenter",walmart,33.857602,-117.918796,"88 E Orangethorpe Ave",Anaheim,CA,92801,walmart-icon.png
8166,3099,"La Palma Neighborhood Market",walmart,33.845619,-118.038726,"5420 Lapalma Ave","La Palma",CA,90623,walmart-icon.png
8167,2546,"Orange Store",walmart,33.8280351,-117.8385642,"2300 N Tustin St",Orange,CA,92865,walmart-icon.png
8168,3477,"Long Beach Supercenter",walmart,33.829326,-118.090624,"7250 Carson Blvd","Long Beach",CA,90808,walmart-icon.png
8169,2082,"Cerritos Supercenter",walmart,33.872491,-118.061727,"12701 Towne Center Dr",Cerritos,CA,90703,walmart-icon.png
8170,3248,"La Habra Supercenter",walmart,33.914719,-117.966157,"1340 S Beach Blvd","La Habra",CA,90631,walmart-icon.png
8171,5641,"La Habra Supercenter",walmart,33.916159,-117.934851,"1000 E Imperial Hwy","La Habra",CA,90631,walmart-icon.png
8172,5661,"La Mirada Neighborhood Market",walmart,33.918651,-118.013542,"14865 Telegraph Road","La Mirada",CA,90638,walmart-icon.png
8173,2523,"Brea Store",walmart,33.9135102,-117.8653504,"2595 E Imperial Hwy",Brea,CA,92821,walmart-icon.png
8174,2609,"Lakewood Supercenter",walmart,33.830338,-118.15857,"2770 Carson St",Lakewood,CA,90712,walmart-icon.png
8175,4101,"Long Beach Supercenter",walmart,33.86142,-118.147723,"3705 E South St","Long Beach",CA,90805,walmart-icon.png
8176,5687,"Irvine Supercenter",walmart,33.6569282,-117.7417489,"71 Technology Dr",Irvine,CA,92618,walmart-icon.png
8177,5164,"Norwalk Store",walmart,33.9183185,-118.0828631,"11729 Imperial Hwy",Norwalk,CA,90650,walmart-icon.png
8178,2948,"Santa Fe Springs Supercenter",walmart,33.940766,-118.049799,"13310 Telegraph Rd","Santa Fe Springs",CA,90670,walmart-icon.png
8179,2110,"Paramount Supercenter",walmart,33.902464,-118.14535,"14501 Lakewood Blvd",Paramount,CA,90723,walmart-icon.png
8180,4132,"Downey Supercenter",walmart,33.924644,-118.129015,"9001 Apollo Way",Downey,CA,90242,walmart-icon.png
8181,5603,"Downey Neighborhood Market",walmart,33.928185,-118.147756,"12270 Paramount Blvd",Downey,CA,90242,walmart-icon.png
8182,2218,"Foothill Ranch Supercenter",walmart,33.679795,-117.671317,"26502 Towne Centre Dr","Foothill Ranch",CA,92610,walmart-icon.png
8183,2251,"City Of Industry Supercenter",walmart,33.998396,-117.932358,"17150 Gale Ave","City Of Industry",CA,91745,walmart-icon.png
8184,5807,"Compton Supercenter",walmart,33.910022,-118.208176,"2100 N Long Beach Blvd",Compton,CA,90221,walmart-icon.png
8185,2206,"Laguna Niguel Store",walmart,33.563536,-117.713072,"27470 Alicia Pkwy","Laguna Niguel",CA,92677,walmart-icon.png
8186,2886,"Pico Rivera Supercenter",walmart,33.985005,-118.105078,"8500 Washington Blvd","Pico Rivera",CA,90660,walmart-icon.png
8187,5602,"Carson Neighborhood Market",walmart,33.8483863,-118.2634793,"20226 Avalon Blvd.",Carson,CA,90746,walmart-icon.png
8188,4762,"Diamond Bar Neighborhood Market",walmart,34.001124,-117.809269,"1180 South Diamond Bar Blvd.","Diamond Bar",CA,91765,walmart-icon.png
8189,3180,"South Gate Supercenter",walmart,33.954813,-118.187613,"4651 Firestone Blvd","South Gate",CA,90280,walmart-icon.png
8190,3133,"La Puente Neighborhood Market",walmart,34.0471887,-117.9497913,"1425 N Hacienda Blvd","La Puente",CA,91744,walmart-icon.png
8191,5072,"Torrance Store",walmart,33.856992,-118.300251,"19503 Normandie Ave",Torrance,CA,90501,walmart-icon.png
8192,5600,"Rancho Santa Margarita Neighborhood Market",walmart,33.640786,-117.601392,"30491 Avenida De Las Flores","Rancho Santa Margarita",CA,92688,walmart-icon.png
8193,3464,"Chino Supercenter",walmart,33.995325,-117.719321,"3943 Grand Ave",Chino,CA,91710,walmart-icon.png
8194,5154,"Rosemead Supercenter",walmart,34.050394,-118.085476,"1827 Walnut Grove Ave",Rosemead,CA,91770,walmart-icon.png
8195,2487,"Corona Neighborhood Market",walmart,33.87734,-117.596143,"1560 West Sixth Street",Corona,CA,92882,walmart-icon.png
8196,3522,"Baldwin Park Supercenter",walmart,34.071943,-117.963494,"3250 Big Dalton Ave","Baldwin Park",CA,91706,walmart-icon.png
8197,2288,"Pomona Store",walmart,34.029257,-117.757758,"80 Rio Rancho Rd",Pomona,CA,91766,walmart-icon.png
8198,5954,"West Covina Supercenter",walmart,34.073315,-117.886899,"2753 E. Eastland Center Dr, Ste 5555","West Covina",CA,91791,walmart-icon.png
8199,5874,"Torrance Store",walmart,33.827786,-118.353381,"22015 Hawthorne Blvd",Torrance,CA,90503,walmart-icon.png
8200,2226,"Torrance Neighborhood Market",walmart,33.855292,-118.352273,"19340 Hawthorne Blvd",Torrance,CA,90503,walmart-icon.png
8201,2842,"Corona Supercenter",walmart,33.846009,-117.541261,"1290 E Ontario Ave",Corona,CA,92881,walmart-icon.png
8202,2292,"Covina Supercenter",walmart,34.102622,-117.909601,"1275 N Azusa Ave",Covina,CA,91722,walmart-icon.png
9023,2825,"Old Bridge Store",walmart,40.447889,-74.30088,"1126 Us Highway 9","Old Bridge",NJ,08857,walmart-icon.png
9031,4153,"Old Bridge Supercenter",walmart,40.373738,-74.319214,"2825 Highway Route 18","Old Bridge",NJ,08857,walmart-icon.png
9037,5142,"Neptune Supercenter",walmart,40.225071,-74.085199,"3575 State Route 66",Neptune,NJ,07753,walmart-icon.png
9038,3236,"Freehold Supercenter",walmart,40.243675,-74.293439,"326 W Main St",Freehold,NJ,07728,walmart-icon.png
9044,2195,"Howell Supercenter",walmart,40.131079,-74.226408,"4900 U.s. Hwy #9",Howell,NJ,07731,walmart-icon.png
9045,3266,"East Windsor Store",walmart,40.253991,-74.55326,"839 Us Highway 130","East Windsor",NJ,08520,walmart-icon.png
9050,1977,"Brick Supercenter",walmart,40.072671,-74.124801,"1872 Route 88",Brick,NJ,08724,walmart-icon.png
9052,2171,"Princeton Store",walmart,40.303211,-74.676952,"101 Nassau Park Blvd",Princeton,NJ,08540,walmart-icon.png
9056,2518,"Hamilton Store",walmart,40.194754,-74.634226,"700 Marketplace Blvd",Hamilton,NJ,08691,walmart-icon.png
9057,5012,"Hamilton Supercenter",walmart,40.234176,-74.714854,"1750 Nottingham Way",Hamilton,NJ,08619,walmart-icon.png
9151,2818,"Hammond Supercenter",walmart,41.569186,-87.482627,"7850 Cabela Dr",Hammond,IN,46324,walmart-icon.png
9161,1576,"Schererville Store",walmart,41.492642,-87.467399,"1555 Us Highway 41",Schererville,IN,46375,walmart-icon.png
9170,2817,"Lansing Supercenter",walmart,41.574788,-87.555088,"17625 Torrence Ave",Lansing,IL,60438,walmart-icon.png
9178,5404,"Homewood Supercenter",walmart,41.540572,-87.633528,"17550 South Halsted Street",Homewood,IL,60430,walmart-icon.png
9184,4049,"Olympia Fields Supercenter",walmart,41.507494,-87.677404,"21000 Western Ave","Olympia Fields",IL,60461,walmart-icon.png
9191,5486,"Country Club Hills Supercenter",walmart,41.583497,-87.716127,"4005 167th St","Country Club Hills",IL,60478,walmart-icon.png
9198,4631,"Hammond Supercenter",walmart,41.692659,-87.519668,"1100 5th Ave",Hammond,IN,46320,walmart-icon.png
9203,1618,"Merrillville Supercenter",walmart,41.473884,-87.300113,"2936 E 79th Ave",Merrillville,IN,46410,walmart-icon.png
9210,5965,"Chicago Supercenter",walmart,41.696631,-87.599021,"10900 S. Doty Avenue",Chicago,IL,60628,walmart-icon.png
9214,1497,"Richton Park Supercenter",walmart,41.48198,-87.750568,"22401 Central Avenue","Richton Park",IL,60471,walmart-icon.png
9221,3601,"Crestwood Supercenter",walmart,41.648217,-87.734201,"4700 135th St",Crestwood,IL,60445,walmart-icon.png
9227,5781,"Chicago Supercenter",walmart,41.7402659,-87.632945,"8331 S Stewart Ave",Chicago,IL,60620,walmart-icon.png
9232,5485,"Evergreen Park Supercenter",walmart,41.7218,-87.6862,"2500 W 95th St","Evergreen Park",IL,60805,walmart-icon.png
9238,2544,"Portage Supercenter",walmart,41.547802,-87.178959,"6087 Us Highway 6",Portage,IN,46368,walmart-icon.png
9246,3110,"Chicago Neighborhood Market",walmart,41.7563217,-87.6628973,"7535 S. Ashland Ave.",Chicago,IL,60620,walmart-icon.png
9258,1556,"Orland Hills Supercenter",walmart,41.59913,-87.842939,"9265 159th St","Orland Hills",IL,60487,walmart-icon.png
9266,1779,"Bridgeview Store",walmart,41.706569,-87.800466,"10260 S Harlem Ave",Bridgeview,IL,60455,walmart-icon.png
9273,3166,"Chicago Neighborhood Market",walmart,41.808846,-87.606801,"4720 S. Cottage Grove Avenue",Chicago,IL,60653,walmart-icon.png
9280,1938,"Bedford Park Supercenter",walmart,41.765639,-87.745478,"7050 S Cicero Ave","Bedford Park",IL,60638,walmart-icon.png
9287,4529,"New Lenox Supercenter",walmart,41.5147816,-87.9534021,"501 E Lincoln Hwy","New Lenox",IL,60451,walmart-icon.png
9292,5646,"Chicago Neighborhood Market",walmart,41.8505531,-87.6899892,"2551 W Cermak Rd",Chicago,IL,60608,walmart-icon.png
9296,3004,"Cicero Supercenter",walmart,41.8308636,-87.7472666,"3320 South Cicero Avenue",Cicero,IL,60804,walmart-icon.png
9300,1892,"Hodgkins Supercenter",walmart,41.777587,-87.863305,"9450 Joliet Rd",Hodgkins,IL,60525,walmart-icon.png
9304,1479,"Valparaiso Supercenter",walmart,41.454783,-87.033847,"2400 Morthland Dr",Valparaiso,IN,46383,walmart-icon.png
9309,3790,"Lockport Supercenter",walmart,41.5922214,-88.0228929,"16241 S Farrell Rd",Lockport,IL,60441,walmart-icon.png
9312,2204,"Forest Park Supercenter",walmart,41.86174,-87.8176469,"1300 Des Plaines Ave","Forest Park",IL,60130,walmart-icon.png
9316,5645,"Chicago Neighborhood Market",walmart,41.934104,-87.644651,"2844 N Broadway St",Chicago,IL,60657,walmart-icon.png
9320,5402,"Chicago Supercenter",walmart,41.911684,-87.742835,"4650 W North Ave",Chicago,IL,60639,walmart-icon.png
9325,1307,"Bourbonnais Supercenter",walmart,41.190112,-87.846595,"2080 No. St. Route 50",Bourbonnais,IL,60914,walmart-icon.png
9327,2215,"Darien Supercenter",walmart,41.748743,-87.999849,"2189 75th St",Darien,IL,60561,walmart-icon.png
9332,5617,"Chicago Supercenter",walmart,41.9347406,-87.7429913,"4626 W Diversey Ave",Chicago,IL,60639,walmart-icon.png
9336,1596,"Bolingbrook Supercenter",walmart,41.695929,-88.06511,"200 South Bolingbrook Drive",Bolingbrook,IL,60440,walmart-icon.png
9340,4531,"Romeoville Supercenter",walmart,41.607286,-88.126922,"420 Weber Road",Romeoville,IL,60446,walmart-icon.png
9346,1256,"Joliet Supercenter",walmart,41.51903,-88.14233,"2424 W Jefferson St",Joliet,IL,60435,walmart-icon.png
9349,1933,"Northlake Store",walmart,41.904616,-87.908666,"137 W North Ave",Northlake,IL,60164,walmart-icon.png
9354,1737,"Villa Park Supercenter",walmart,41.871911,-87.962802,"900 South Route 83","Villa Park",IL,60181,walmart-icon.png
9358,1487,"Michigan City Supercenter",walmart,41.667118,-86.887953,"5780 Franklin St","Michigan City",IN,46360,walmart-icon.png
9363,1848,"Glen Ellyn Supercenter",walmart,41.8285902,-88.0568914,"3s100 Route 53","Glen Ellyn",IL,60137,walmart-icon.png
9367,1998,"Skokie Supercenter",walmart,42.012834,-87.719145,"3626 Touhy Ave",Skokie,IL,60076,walmart-icon.png
9372,2956,"Shorewood Supercenter",walmart,41.547297,-88.203464,"1401 Il Route 59",Shorewood,IL,60431,walmart-icon.png
9377,2816,"Niles Store",walmart,42.014975,-87.768713,"5630 W Touhy Ave",Niles,IL,60714,walmart-icon.png
9382,4323,"Kankakee Supercenter",walmart,41.080522,-87.86108,"505 Riverstone Pkwy",Kankakee,IL,60901,walmart-icon.png
9387,5038,"Plainfield Supercenter",walmart,41.653333,-88.207224,"12690 S Route 59",Plainfield,IL,60585,walmart-icon.png
9392,1401,"Naperville Supercenter",walmart,41.745338,-88.198078,"2552 W. 75th St",Naperville,IL,60564,walmart-icon.png
9396,5442,"Addison Supercenter",walmart,41.949795,-88.033948,"1050 N Rohlwing Rd",Addison,IL,60101,walmart-icon.png
9401,3725,"Niles Supercenter",walmart,42.056567,-87.835428,"8500 W Golf Rd",Niles,IL,60714,walmart-icon.png
9405,1553,"Bloomingdale Supercenter",walmart,41.936421,-88.102649,"314 West Army Trail Road",Bloomingdale,IL,60108,walmart-icon.png
9410,6167,"Des Plaines Neighborhood Market",walmart,42.04599,-87.938222,"727 W. Golf Road","Des Plaines",IL,60016,walmart-icon.png
9415,1897,"Elk Grove Village Supercenter",walmart,42.001684,-88.043323,"801 Meacham Rd","Elk Grove Village",IL,60007,walmart-icon.png
9418,3400,"Oswego Supercenter",walmart,41.703624,-88.302559,"2300 Us Highway 34",Oswego,IL,60543,walmart-icon.png
11458,2332,"Saint Albans Store",walmart,44.841719,-73.0897182,"700 Tuckers Way","Saint Albans",VT,05478,walmart-icon.png
11459,1994,"Plattsburgh Supercenter",walmart,44.692173,-73.486997,"25 Consumer Sq",Plattsburgh,NY,12901,walmart-icon.png
11460,3334,"Malone Supercenter",walmart,44.845175,-74.329384,"3222 State Route 11",Malone,NY,12953,walmart-icon.png
11461,1946,"Massena Supercenter",walmart,44.922201,-74.877754,"43 Stephenville St",Massena,NY,13662,walmart-icon.png
11462,4156,"Derby Supercenter",walmart,44.949783,-72.171052,"115 Seymour Drive",Derby,VT,05829,walmart-icon.png
11463,2224,"Williston Store",walmart,44.441633,-73.122127,"863 Harvest Ln",Williston,VT,05495,walmart-icon.png
11464,3329,"Potsdam Supercenter",walmart,44.661593,-75.026502,"7494 Us Highway 11",Potsdam,NY,13676,walmart-icon.png
11569,1597,"Tulsa Supercenter",walmart,36.004616,-95.889705,"10938 S Memorial Dr",Tulsa,OK,74133,walmart-icon.png
11576,2880,"Tulsa Neighborhood Market",walmart,36.044977,-95.903172,"6606 E 81st St",Tulsa,OK,74133,walmart-icon.png
11583,6942,"Broken Arrow Neighborhood Market",walmart,36.0451176,-95.8491329,"4851 W. Houston St","Broken Arrow",OK,74012,walmart-icon.png
11588,894,"Tulsa Supercenter",walmart,36.066625,-95.882795,"6625 S Memorial Dr",Tulsa,OK,74133,walmart-icon.png
11597,2395,"Tulsa Neighborhood Market",walmart,36.027632,-95.947007,"9411 S Delaware Ave",Tulsa,OK,74137,walmart-icon.png
11604,992,"Tulsa Supercenter",walmart,36.047802,-95.961035,"2019 E 81st St",Tulsa,OK,74137,walmart-icon.png
11611,472,"Broken Arrow Supercenter",walmart,36.058129,-95.817643,"2301 W Kenosha St","Broken Arrow",OK,74012,walmart-icon.png
11619,3508,"Broken Arrow Neighborhood Market",walmart,36.033353,-95.799143,"1770 S Elm Pl","Broken Arrow",OK,74012,walmart-icon.png
11625,3295,"Broken Arrow Supercenter",walmart,35.991653,-95.800655,"6310 S Elm Pl","Broken Arrow",OK,74011,walmart-icon.png
11634,5336,"Jenks Neighborhood Market",walmart,36.003161,-95.978308,"11020 Elm Street",Jenks,OK,74037,walmart-icon.png
11643,3457,"Tulsa Neighborhood Market",walmart,36.118189,-95.853516,"3116 S Garnett Rd",Tulsa,OK,74146,walmart-icon.png
11653,4655,"Broken Arrow Neighborhood Market",walmart,36.076136,-95.775883,"1300 East Albany Street","Broken Arrow",OK,74012,walmart-icon.png
11661,4615,"Glenpool Supercenter",walmart,35.983849,-96.014187,"12200 S Waco Ave",Glenpool,OK,74033,walmart-icon.png
11668,6170,"Tulsa Neighborhood Market",walmart,36.117453,-95.938605,"3139 S Harvard Ave E",Tulsa,OK,74135,walmart-icon.png
11675,5093,"Tulsa Neighborhood Market",walmart,36.099325,-95.977099,"4404 S Peoria Ave",Tulsa,OK,74105,walmart-icon.png
11681,3340,"Tulsa Neighborhood Market",walmart,36.131823,-95.923779,"4720 E 21st St",Tulsa,OK,74114,walmart-icon.png
11688,4637,"Broken Arrow Supercenter",walmart,36.0667429,-95.7428452,"3900 E Hillside Dr","Broken Arrow",OK,74014,walmart-icon.png
11692,576,"Tulsa Supercenter",walmart,36.159391,-95.883238,"207 S Memorial Dr",Tulsa,OK,74112,walmart-icon.png
11699,374,"Coweta Supercenter",walmart,36.001683,-95.677254,"11207 S State Highway 51",Coweta,OK,74429,walmart-icon.png
11702,3055,"Catoosa Supercenter",walmart,36.165325,-95.75607,"19801 Robson Rd",Catoosa,OK,74015,walmart-icon.png
11710,73,"Sapulpa Supercenter",walmart,35.986324,-96.135074,"1002 W Taft St",Sapulpa,OK,74066,walmart-icon.png
11718,838,"Sand Springs Supercenter",walmart,36.134924,-96.120347,"220 S Highway 97","Sand Springs",OK,74063,walmart-icon.png
11728,5840,"Owasso Neighborhood Market",walmart,36.276615,-95.828725,"12912 E 86th St N",Owasso,OK,74055,walmart-icon.png
11738,168,"Owasso Supercenter",walmart,36.295227,-95.837899,"12101 E 96th St N",Owasso,OK,74055,walmart-icon.png
11749,4585,"Owasso Neighborhood Market",walmart,36.321458,-95.829267,"11551 N 129th East Ave",Owasso,OK,74055,walmart-icon.png
11756,12,"Claremore Supercenter",walmart,36.293955,-95.627125,"1500 S Lynn Riggs Blvd",Claremore,OK,74017,walmart-icon.png
11764,246,"Skiatook Supercenter",walmart,36.370696,-96.01132,"700 W Rogers Blvd",Skiatook,OK,74070,walmart-icon.png
11771,63,"Wagoner Supercenter",walmart,35.95667,-95.397539,"410 S Dewey Ave",Wagoner,OK,74467,walmart-icon.png
11778,121,"Okmulgee Supercenter",walmart,35.605657,-95.964357,"1800 S Wood Dr",Okmulgee,OK,74447,walmart-icon.png
11786,324,"Bristow Supercenter",walmart,35.844007,-96.394808,"105 W Highway 16",Bristow,OK,74010,walmart-icon.png
11792,130,"Muskogee Supercenter",walmart,35.772625,-95.373093,"1000 W Shawnee St",Muskogee,OK,74401,walmart-icon.png
11798,22,"Pryor Supercenter",walmart,36.262476,-95.330024,"4901 S Mill St",Pryor,OK,74361,walmart-icon.png
11808,207,"Cleveland Supercenter",walmart,36.297466,-96.463165,"772 N Airport Rd",Cleveland,OK,74020,walmart-icon.png
11816,247,"Henryetta Store",walmart,35.438882,-95.974421,"605 E Main St",Henryetta,OK,74437,walmart-icon.png
11820,3723,"Locust Grove Neighborhood Market",walmart,36.198695,-95.158237,"800 E Main","Locust Grove",OK,74352,walmart-icon.png
11828,340,"Checotah Supercenter",walmart,35.470025,-95.534337,"131 Paul Carr Dr",Checotah,OK,74426,walmart-icon.png
11831,360,"Cushing Supercenter",walmart,35.987433,-96.721249,"3100 E Main St",Cushing,OK,74023,walmart-icon.png
11841,41,"Bartlesville Supercenter",walmart,36.740695,-95.931584,"4000 Se Green Country Rd",Bartlesville,OK,74006,walmart-icon.png
11849,10,"Tahlequah Supercenter",walmart,35.888765,-94.979859,"2020 S Muskogee Ave",Tahlequah,OK,74464,walmart-icon.png
11861,387,"Chandler Supercenter",walmart,35.711749,-96.842036,"3100 E 1st St",Chandler,OK,74834,walmart-icon.png
11869,50,"Vinita Supercenter",walmart,36.631855,-95.140418,"268 S 7th St",Vinita,OK,74301,walmart-icon.png
11879,137,"Stillwater Supercenter",walmart,36.124523,-97.048223,"111 N Perkins Rd",Stillwater,OK,74075,walmart-icon.png
11891,5364,"Stillwater Neighborhood Market",walmart,36.145608,-97.049482,"2315 N. Perkins Road",Stillwater,OK,74075,walmart-icon.png
11899,327,"Jay Store",walmart,36.419232,-94.806089,"1107 S Main St",Jay,OK,74346,walmart-icon.png
11906,123,"Seminole Supercenter",walmart,35.248317,-96.654501,"1500 E Wrangler Blvd",Seminole,OK,74868,walmart-icon.png
11914,276,"Stigler Supercenter",walmart,35.2523274,-95.1084185,"1312 E Main St",Stigler,OK,74462,walmart-icon.png
11919,4241,"Stillwater Supercenter",walmart,36.113979,-97.119185,"4545 W 6th Ave",Stillwater,OK,74074,walmart-icon.png
11927,210,"Holdenville Store",walmart,35.088093,-96.381422,"500 East Highway 270",Holdenville,OK,74848,walmart-icon.png
11935,81,"Stilwell Supercenter",walmart,35.798588,-94.623206,"Rr 6 Box 1895",Stilwell,OK,74960,walmart-icon.png
11945,47,"Sallisaw Supercenter",walmart,35.451011,-94.80181,"1101 W Ruth Ave",Sallisaw,OK,74955,walmart-icon.png
12065,1507,"Wichita Supercenter",walmart,37.73877,-97.241824,"3030 N Rock Rd",Wichita,KS,67226,walmart-icon.png
12066,3492,"Wichita Supercenter",walmart,37.676375,-97.204346,"11411 E Kellogg Dr",Wichita,KS,67207,walmart-icon.png
12067,5990,"Wichita Neighborhood Market",walmart,37.721641,-97.364804,"2111 N Amidon Ave",Wichita,KS,67203,walmart-icon.png
12068,1099,"Wichita Supercenter",walmart,37.647903,-97.332121,"501 E Pawnee St",Wichita,KS,67211,walmart-icon.png
12069,5991,"Wichita Neighborhood Market",walmart,37.638013,-97.35433,"3137 S Seneca St",Wichita,KS,67207,walmart-icon.png
12070,4321,"Wichita Supercenter",walmart,37.784405,-97.373553,"5475 N Meridian Ave",Wichita,KS,67204,walmart-icon.png
12071,592,"Derby Supercenter",walmart,37.568988,-97.274999,"2020 N Nelson Dr",Derby,KS,67037,walmart-icon.png
12072,1221,"Wichita Supercenter",walmart,37.675374,-97.413451,"6110 W Kellogg Dr",Wichita,KS,67209,walmart-icon.png
12073,346,"Augusta Supercenter",walmart,37.677977,-96.987658,"719 W 7th Ave",Augusta,KS,67010,walmart-icon.png
12074,3155,"Derby Neighborhood Market",walmart,37.532798,-97.242388,"1106 S. Rock Rd",Derby,KS,67037,walmart-icon.png
12075,3283,"Wichita Supercenter",walmart,37.724703,-97.465846,"10600 W 21st St N",Wichita,KS,67205,walmart-icon.png
12076,5855,"Wichita Neighborhood Market",walmart,37.695454,-97.4646,"10550 W Central Ave",Wichita,KS,67212,walmart-icon.png
12077,3103,"Goddard Supercenter",walmart,37.660652,-97.554652,"18631 W Kellogg Dr",Goddard,KS,67052,walmart-icon.png
12078,186,"El Dorado Supercenter",walmart,37.814622,-96.892174,"301 S Village Rd","El Dorado",KS,67042,walmart-icon.png
12079,2428,"Newton Supercenter",walmart,38.023282,-97.339246,"1701 S Kansas Rd",Newton,KS,67114,walmart-icon.png
12080,370,"Wellington Supercenter",walmart,37.273436,-97.373226,"2022 E 16th St",Wellington,KS,67152,walmart-icon.png
12081,369,"Winfield Supercenter",walmart,37.22725,-96.992729,"2202 Pike Rd",Winfield,KS,67156,walmart-icon.png
12082,794,"Hutchinson Supercenter",walmart,38.070078,-97.892255,"1905 E 17th Ave",Hutchinson,KS,67501,walmart-icon.png
12083,978,"Arkansas City Supercenter",walmart,37.089881,-97.043155,"2701 N Summit St","Arkansas City",KS,67005,walmart-icon.png
12084,993,"Mcpherson Supercenter",walmart,38.367599,-97.628126,"205 S Centennial Dr",Mcpherson,KS,67460,walmart-icon.png
12085,136,"Blackwell Store",walmart,36.810171,-97.297401,"1219 W Doolin Ave",Blackwell,OK,74631,walmart-icon.png
12086,823,"Ponca City Supercenter",walmart,36.741209,-97.07183,"1101 E Prospect Ave","Ponca City",OK,74601,walmart-icon.png
12087,557,"Emporia Supercenter",walmart,38.424985,-96.219695,"2301 Industrial Rd",Emporia,KS,66801,walmart-icon.png
12088,558,"Salina Supercenter",walmart,38.785465,-97.61503,"2900 S 9th St",Salina,KS,67401,walmart-icon.png
12089,419,"Pratt Supercenter",walmart,37.644053,-98.713481,"2003 E 1st St",Pratt,KS,67124,walmart-icon.png
12090,2893,"Independence Supercenter",walmart,37.222679,-95.74349,"121 Peter Pan Rd",Independence,KS,67301,walmart-icon.png
12091,4626,"Junction City Neighborhood Market",walmart,39.017913,-96.86175,"1723 Mcfarland Road","Junction City",KS,66441,walmart-icon.png
12092,43,"Junction City Supercenter",walmart,39.018965,-96.820674,"521 E Chestnut St","Junction City",KS,66441,walmart-icon.png
12093,770,"Great Bend Supercenter",walmart,38.358995,-98.7872,"3503 10th St","Great Bend",KS,67530,walmart-icon.png
12094,111,"Chanute Supercenter",walmart,37.65365,-95.450998,"2700 S Santa Fe Ave",Chanute,KS,66720,walmart-icon.png
12096,4390,"Enid Neighborhood Market",walmart,36.406535,-97.9096037,"1018 N. Cleveland Street",Enid,OK,73703,walmart-icon.png
12097,1187,"Iola Supercenter",walmart,37.942881,-95.41173,"2200 N State St",Iola,KS,66749,walmart-icon.png
13146,42,"Coffeyville Supercenter",walmart,37.042359,-95.579038,"1863 Cr 5300",Coffeyville,KS,67337,walmart-icon.png
13155,90,"Grove Supercenter",walmart,36.5764748,-94.7656055,"2115 S Main St",Grove,OK,74344,walmart-icon.png
13248,5180,"Overland Park Neighborhood Market",walmart,38.940733,-94.665432,"10303 Metcalf Ave","Overland Park",KS,66212,walmart-icon.png
13251,5207,"Overland Park Neighborhood Market",walmart,38.96574,-94.668832,"9000 Metcalf Ave","Overland Park",KS,66212,walmart-icon.png
13254,1599,"Overland Park Supercenter",walmart,38.914788,-94.663843,"11701 Metcalf Ave","Overland Park",KS,66210,walmart-icon.png
13257,1691,"Overland Park Store",walmart,38.989813,-94.698802,"7701 Frontage Rd","Overland Park",KS,66204,walmart-icon.png
13260,5308,"Shawnee Neighborhood Market",walmart,38.994557,-94.713426,"11010 W 74th Ter",Shawnee,KS,66203,walmart-icon.png
13263,577,"Olathe Supercenter",walmart,38.880878,-94.758164,"13600 S Alden St",Olathe,KS,66062,walmart-icon.png
13266,2955,"Kansas City Supercenter",walmart,38.885051,-94.604949,"1701 W 133rd St","Kansas City",MO,64145,walmart-icon.png
13269,2855,"Shawnee Supercenter",walmart,39.012076,-94.772878,"16100 W 65th St",Shawnee,KS,66217,walmart-icon.png
13272,2490,"Roeland Park Store",walmart,39.035564,-94.641175,"5150 Roe Blvd","Roeland Park",KS,66205,walmart-icon.png
13275,3273,"Overland Park Supercenter",walmart,38.842433,-94.669718,"15700 Metcalf Ave","Overland Park",KS,66223,walmart-icon.png
13278,998,"Westwood Neighborhood Market",walmart,39.043571,-94.619378,"4701 Mission Rd",Westwood,KS,66205,walmart-icon.png
13281,4198,"Olathe Neighborhood Market",walmart,38.8528875,-94.799769,"18555 W. 151st St",Olathe,KS,66062,walmart-icon.png
13284,6172,"Kansas City Neighborhood Market",walmart,39.0747105,-94.6559528,"2300 Metropolitan Avenue","Kansas City",KS,66106,walmart-icon.png
13287,4475,"Olathe Supercenter",walmart,38.886238,-94.837904,"395 N K 7 Hwy",Olathe,KS,66061,walmart-icon.png
13290,4611,"Shawnee Supercenter",walmart,39.025086,-94.849847,"5701 Silverheel Street",Shawnee,KS,66226,walmart-icon.png
13293,1094,"Raytown Supercenter",walmart,38.9837453,-94.4593203,"10300 E Highway 350",Raytown,MO,64138,walmart-icon.png
13296,319,"Raymore Supercenter",walmart,38.809975,-94.495531,"2015 W Foxwood Dr",Raymore,MO,64083,walmart-icon.png
13299,486,"Bonner Springs Supercenter",walmart,39.085862,-94.877566,"12801 Kansas Ave","Bonner Springs",KS,66012,walmart-icon.png
13302,5307,"Gardner Supercenter",walmart,38.80882,-94.893071,"1725 E Santa Fe St",Gardner,KS,66030,walmart-icon.png
13305,4553,"Kansas City Supercenter",walmart,39.044826,-94.442987,"11601 E Us Highway 40","Kansas City",MO,64133,walmart-icon.png
13308,1151,"Kansas City Supercenter",walmart,39.132168,-94.830061,"10824 Parallel Pkwy","Kansas City",KS,66109,walmart-icon.png
13311,6500,"Independence Neighborhood Market",walmart,39.058207,-94.413667,"3411 S. Noland Road",Independence,MO,64055,walmart-icon.png
13314,573,"Lees Summit Supercenter",walmart,38.930632,-94.363615,"1000 Ne Sam Walton Ln","Lees Summit",MO,64086,walmart-icon.png
13316,4590,"Lees Summit Supercenter",walmart,38.856651,-94.380671,"3410 Sw Market St","Lees Summit",MO,64082,walmart-icon.png
13319,2442,"Kansas City Neighborhood Market",walmart,39.189841,-94.546561,"5261 North Antioch Road","Kansas City",MO,64119,walmart-icon.png
13321,1014,"Independence Supercenter",walmart,39.046101,-94.367039,"4000 S Bolger Rd",Independence,MO,64055,walmart-icon.png
13324,1120,"Gladstone Supercenter",walmart,39.225427,-94.545685,"7207 N M1 Hwy",Gladstone,MO,64119,walmart-icon.png
13327,2857,"Kansas City Supercenter",walmart,39.250489,-94.654535,"8551 N Boardwalk Ave","Kansas City",MO,64154,walmart-icon.png
13330,5149,"Blue Springs Neighborhood Market",walmart,39.037642,-94.2697,"1700 N 7 Hwy","Blue Springs",MO,64014,walmart-icon.png
13333,184,"Blue Springs Supercenter",walmart,39.024151,-94.25503,"600 Ne Coronado Dr","Blue Springs",MO,64014,walmart-icon.png
13336,234,"Kansas City Supercenter",walmart,39.243164,-94.459216,"8301 N Church Rd","Kansas City",MO,64158,walmart-icon.png
13339,96,"Harrisonville Supercenter",walmart,38.666161,-94.369474,"1700 N State Route 291",Harrisonville,MO,64701,walmart-icon.png
13342,26,"Leavenworth Supercenter",walmart,39.268764,-94.930386,"5000 10th Ave",Leavenworth,KS,66048,walmart-icon.png
13345,242,"Paola Supercenter",walmart,38.573605,-94.857295,"310 Hedge Ln",Paola,KS,66071,walmart-icon.png
13348,484,"Lawrence Supercenter",walmart,38.923672,-95.256869,"3300 Iowa St",Lawrence,KS,66046,walmart-icon.png
13351,2856,"Oak Grove Supercenter",walmart,39.014136,-94.122174,"201 Se Salem St","Oak Grove",MO,64075,walmart-icon.png
13354,5219,"Lawrence Supercenter",walmart,38.973408,-95.309766,"550 Congressional Dr",Lawrence,KS,66049,walmart-icon.png
13357,195,"Excelsior Springs Supercenter",walmart,39.329466,-94.265105,"2203 Patsy Ln","Excelsior Springs",MO,64024,walmart-icon.png
13360,382,"Ottawa Supercenter",walmart,38.581196,-95.264337,"2101 S Princeton St",Ottawa,KS,66067,walmart-icon.png
13363,325,"Richmond Supercenter",walmart,39.263479,-93.963432,"908 Walton Way",Richmond,MO,64085,walmart-icon.png
13366,1054,"Atchison Supercenter",walmart,39.540389,-95.129139,"1920 Highway 73",Atchison,KS,66002,walmart-icon.png
13369,888,"Butler Supercenter",walmart,38.254537,-94.356466,"400 S Fran",Butler,MO,64730,walmart-icon.png
13371,326,"Higginsville Store",walmart,39.077943,-93.736752,"1180 W 19th St",Higginsville,MO,64037,walmart-icon.png
13374,6392,"Topeka Supercenter",walmart,39.020302,-95.648144,"2630 Se California Avenue",Topeka,KS,66605,walmart-icon.png
13377,61,"Warrensburg Supercenter",walmart,38.781105,-93.735334,"301 E Cooper St",Warrensburg,MO,64093,walmart-icon.png
13380,5441,"Topeka Supercenter",walmart,39.093858,-95.671781,"2600 Nw Rochester Rd",Topeka,KS,66617,walmart-icon.png
13383,2131,"Topeka Supercenter",walmart,38.998341,-95.693918,"1301 Sw 37th St",Topeka,KS,66611,walmart-icon.png
13386,2994,"Saint Joseph Supercenter",walmart,39.736967,-94.804202,"3022 S Belt Hwy","Saint Joseph",MO,64503,walmart-icon.png
13389,6585,"Topeka Neighborhood Market",walmart,39.0600431,-95.7083932,"335 Sw Macvicar Avenue",Topeka,KS,66606,walmart-icon.png
13392,1802,"Topeka Supercenter",walmart,39.039531,-95.764743,"1501 Sw Wanamaker Rd",Topeka,KS,66604,walmart-icon.png
14151,2088,"Batavia Supercenter",walmart,43.013638,-78.207967,"4133 Veterans Memorial Dr",Batavia,NY,14020,walmart-icon.png
14156,3607,"Albion Supercenter",walmart,43.234153,-78.226188,"13858 State Route 31",Albion,NY,14411,walmart-icon.png
14161,2043,"Warsaw Store",walmart,42.767271,-78.128215,"2348 Route #19",Warsaw,NY,14569,walmart-icon.png
14166,1993,"Brockport Supercenter",walmart,43.196977,-77.927723,"6265 Brockport Spencerport Rd",Brockport,NY,14420,walmart-icon.png
14171,1966,"Geneseo Supercenter",walmart,42.802569,-77.788392,"4235 Veteran Dr",Geneseo,NY,14454,walmart-icon.png
14176,2355,"Williamsville Supercenter",walmart,42.983145,-78.693781,"5033 Transit Rd",Williamsville,NY,14221,walmart-icon.png
14179,5027,"Lancaster Supercenter",walmart,42.882479,-78.694009,"4975 Transit Rd",Lancaster,NY,14043,walmart-icon.png
14184,2859,"Rochester Supercenter",walmart,43.133781,-77.688947,"2150 Chili Ave",Rochester,NY,14624,walmart-icon.png
14189,2107,"Lockport Supercenter",walmart,43.147314,-78.694226,"5735 South Transit Road",Lockport,NY,14094,walmart-icon.png
14193,1610,"Greece Store",walmart,43.214571,-77.724256,"100 Elmridge Center Dr",Greece,NY,14626,walmart-icon.png
14201,2586,"Cheektowaga Supercenter",walmart,42.910469,-78.743309,"2500 Walden Ave",Cheektowaga,NY,14225,walmart-icon.png
14207,1619,"Rochester Supercenter",walmart,43.080606,-77.62265,"1200 Marketplace Dr",Rochester,NY,14623,walmart-icon.png
14213,2210,"Amherst Supercenter",walmart,42.982385,-78.811839,"3290 Sheridan Dr",Amherst,NY,14226,walmart-icon.png
14219,5282,"Greece Supercenter",walmart,43.239688,-77.643554,"3800 Dewey Ave",Greece,NY,14616,walmart-icon.png
14225,3280,"Rochester Supercenter",walmart,43.1942812,-77.5968688,"1490 Hudson Ave",Rochester,NY,14621,walmart-icon.png
14232,4597,"North Tonawanda Supercenter",walmart,43.0559644,-78.8436698,"886 Niagara Falls Blvd","North Tonawanda",NY,14120,walmart-icon.png
14237,1744,"Webster Supercenter",walmart,43.190503,-77.498195,"1990 Brandt Point Drive",Webster,NY,14580,walmart-icon.png
14243,2785,"Victor Supercenter",walmart,43.015934,-77.436261,"441 Commerce Dr",Victor,NY,14564,walmart-icon.png
14249,2405,"Hamburg Supercenter",walmart,42.743219,-78.871643,"5360 Southwestern Blvd",Hamburg,NY,14075,walmart-icon.png
14255,1909,"Niagara Falls Supercenter",walmart,43.094308,-78.978894,"1540 Military Rd","Niagara Falls",NY,14304,walmart-icon.png
14259,3842,"Macedon Supercenter",walmart,43.066512,-77.357871,"425 State Route 31",Macedon,NY,14502,walmart-icon.png
14265,2164,"Springville Supercenter",walmart,42.500879,-78.693193,"317 S Cascade Dr",Springville,NY,14141,walmart-icon.png
14271,1673,"Canandaigua Supercenter",walmart,42.876081,-77.23991,"4238 Recreation Dr",Canandaigua,NY,14424,walmart-icon.png
14277,2326,"Hornell Store",walmart,42.346455,-77.669027,"1000 State Route 36",Hornell,NY,14843,walmart-icon.png
14284,1813,"Newark Supercenter",walmart,43.051597,-77.057757,"6788 State Route 31 E",Newark,NY,14513,walmart-icon.png
14290,1731,"Geneva Supercenter",walmart,42.859824,-77.021515,"990 State Route 5 And 20",Geneva,NY,14456,walmart-icon.png
14294,2159,"Olean Supercenter",walmart,42.080352,-78.467732,"1869 Plaza Dr",Olean,NY,14760,walmart-icon.png
14300,1949,"Fredonia Supercenter",walmart,42.45371,-79.313292,"10401 Bennett Rd",Fredonia,NY,14063,walmart-icon.png
14307,1705,"Waterloo Supercenter",walmart,42.9076868,-76.8408491,"1860 N Road",Waterloo,NY,13165,walmart-icon.png
14313,3514,"Bradford Supercenter",walmart,41.978433,-78.608937,"50 Foster Brook Blvd",Bradford,PA,16701,walmart-icon.png
14316,3221,"Watkins Glen Supercenter",walmart,42.3807218,-76.863316,"515 E 4th St","Watkins Glen",NY,14891,walmart-icon.png
14322,2992,"Painted Post Supercenter",walmart,42.155559,-77.106849,"3217 Silverback Ln","Painted Post",NY,14870,walmart-icon.png
14328,1830,"Auburn Supercenter",walmart,42.9540567,-76.5481535,"297 Grant Ave",Auburn,NY,13021,walmart-icon.png
14334,1973,"Lakewood Supercenter",walmart,42.097,-79.299923,"350 E Fairmount Ave",Lakewood,NY,14750,walmart-icon.png
14341,1976,"Horseheads Supercenter",walmart,42.1568225,-76.8540245,"1400 County Rd 64",Horseheads,NY,14845,walmart-icon.png
14347,3332,"Fulton Supercenter",walmart,43.323635,-76.448689,"1818 State Route #3",Fulton,NY,13069,walmart-icon.png
14353,3429,"Warren Supercenter",walmart,41.882182,-79.150829,"2901 Market St",Warren,PA,16365,walmart-icon.png
14359,1926,"Oswego Supercenter",walmart,43.464286,-76.479042,"341 State Route 104",Oswego,NY,13126,walmart-icon.png
14369,2581,"Camillus Supercenter",walmart,43.037822,-76.272331,"5399 W Genesee St",Camillus,NY,13031,walmart-icon.png
14373,1831,"Liverpool Supercenter",walmart,43.189246,-76.242531,"8770 Dell Center Drive",Liverpool,NY,13090,walmart-icon.png
14641,5678,"Lynnwood Neighborhood Market",walmart,47.842328,-122.299477,"17222 Highway 99",Lynnwood,WA,98037,walmart-icon.png
14645,2594,"Lynnwood Store",walmart,47.848617,-122.252455,"1400 164th St Sw",Lynnwood,WA,98087,walmart-icon.png
14649,3098,"Bellevue Neighborhood Market",walmart,47.608956,-122.139482,"15063 Main St",Bellevue,WA,98007,walmart-icon.png
14653,5939,"Bellevue Store",walmart,47.572888,-122.172531,"12620 Se 41st Pl",Bellevue,WA,98006,walmart-icon.png
14657,5195,"Everett Store",walmart,47.894532,-122.2558117,"11400 Highway 99",Everett,WA,98204,walmart-icon.png
14661,2317,"Bremerton Store",walmart,47.624868,-122.632771,"6797 State Highway 303 Ne",Bremerton,WA,98311,walmart-icon.png
14665,3053,"Everett Supercenter",walmart,47.914407,-122.213722,"1605 Se Everett Mall Way",Everett,WA,98208,walmart-icon.png
14668,5272,"Poulsbo Supercenter",walmart,47.757032,-122.662579,"21200 Olhava Way Nw",Poulsbo,WA,98370,walmart-icon.png
14671,2516,"Renton Supercenter",walmart,47.472133,-122.221072,"743 Rainier Avenue South",Renton,WA,98057,walmart-icon.png
14675,2325,"Port Orchard Supercenter",walmart,47.516653,-122.627567,"3497 Bethel Rd Se","Port Orchard",WA,98366,walmart-icon.png
14679,5628,"Monroe Supercenter",walmart,47.865754,-121.972124,"19191 N Kelsey Street",Monroe,WA,98272,walmart-icon.png
14682,5073,"Covington Store",walmart,47.361081,-122.108357,"17432 Se 270th Pl",Covington,WA,98042,walmart-icon.png
14686,3801,"Marysville Supercenter",walmart,48.055649,-122.112545,"8713 64th St Ne",Marysville,WA,98270,walmart-icon.png
14690,2571,"Federal Way Store",walmart,47.321787,-122.30978,"1900 S 314th St","Federal Way",WA,98003,walmart-icon.png
14694,2595,"Marysville Supercenter",walmart,48.0789466,-122.1885064,"8924 Quilceda Blvd",Marysville,WA,98271,walmart-icon.png
14698,2385,"Auburn Supercenter",walmart,47.301493,-122.240883,"762 Outlet Collection Way",Auburn,WA,98001,walmart-icon.png
14702,3794,"Federal Way Supercenter",walmart,47.292601,-122.310195,"34520 16th Ave S","Federal Way",WA,98003,walmart-icon.png
14706,3757,"Arlington Supercenter",walmart,48.150446,-122.17533,"4010 172nd St Ne",Arlington,WA,98223,walmart-icon.png
14710,4137,"Tacoma Supercenter",walmart,47.24002,-122.478581,"1965 S. Union Ave",Tacoma,WA,98405,walmart-icon.png
14714,3537,"Lakewood Supercenter",walmart,47.193924,-122.516962,"7001 Bridgeport Way W",Lakewood,WA,98499,walmart-icon.png
14716,2403,"Puyallup Supercenter",walmart,47.161109,-122.288686,"310 31st Ave Se",Puyallup,WA,98374,walmart-icon.png
14720,5041,"Bonney Lake Supercenter",walmart,47.167646,-122.171764,"19205 State Route 410 E","Bonney Lake",WA,98391,walmart-icon.png
14723,3525,"Puyallup Supercenter",walmart,47.105989,-122.29724,"16502 Meridian E",Puyallup,WA,98375,walmart-icon.png
14727,2319,"Oak Harbor Store",walmart,48.2888983,-122.6619987,"1250 Sw Erie St","Oak Harbor",WA,98277,walmart-icon.png
14731,1286,"Columbia Supercenter",walmart,33.964176,-80.938599,"7520 Garners Ferry Rd",Columbia,SC,29209,walmart-icon.png
14732,3218,"Spanaway Supercenter",walmart,47.073972,-122.419456,"20307 Mountain Hwy E",Spanaway,WA,98387,walmart-icon.png
14736,2214,"Columbia Supercenter",walmart,34.02128,-80.952336,"5420 Forest Dr",Columbia,SC,29206,walmart-icon.png
14737,5273,"Sequim Supercenter",walmart,48.080129,-123.134232,"1110 W Washington St",Sequim,WA,98382,walmart-icon.png
14741,3531,"Lacey Supercenter",walmart,47.060493,-122.77375,"1401 Galaxy Dr Ne",Lacey,WA,98516,walmart-icon.png
14742,1339,"Columbia Supercenter",walmart,34.110157,-80.886603,"10060 Two Notch Rd",Columbia,SC,29223,walmart-icon.png
14746,2121,"Shelton Supercenter",walmart,47.233071,-123.125644,"100 E Wallace Kneeland Blvd",Shelton,WA,98584,walmart-icon.png
14747,5378,"Cayce Neighborhood Market",walmart,33.977727,-81.073119,"1355 Knox Abbott Drive",Cayce,SC,29033,walmart-icon.png
14751,2596,"Mount Vernon Supercenter",walmart,48.441695,-122.346325,"2301 Freeway Dr","Mount Vernon",WA,98273,walmart-icon.png
14752,4506,"Columbia Supercenter",walmart,34.1380983,-80.9663092,"321 Killian Rd",Columbia,SC,29203,walmart-icon.png
14756,4757,"Lacey Neighborhood Market",walmart,46.997056,-122.818677,"5110 Yelm Highway",Lacey,WA,98503,walmart-icon.png
14757,1183,"West Columbia Supercenter",walmart,33.979847,-81.099619,"2401 Augusta Rd","West Columbia",SC,29169,walmart-icon.png
14761,4379,"Columbia Supercenter",walmart,34.028461,-81.108395,"1326 Bush River Rd",Columbia,SC,29210,walmart-icon.png
14762,3705,"Yelm Supercenter",walmart,46.934748,-122.577503,"17100 State Route 507 Se",Yelm,WA,98597,walmart-icon.png
14766,5318,"Columbia Neighborhood Market",walmart,34.05649,-81.111633,"3603 Broad River Rd",Columbia,SC,29210,walmart-icon.png
14767,2196,"Port Angeles Supercenter",walmart,48.111047,-123.362177,"3411 E Kolonels Way","Port Angeles",WA,98362,walmart-icon.png
14771,5291,"Columbia Neighborhood Market",walmart,33.943928,-81.169058,"1019 Old Barnwell Rd",Columbia,SC,29170,walmart-icon.png
14772,3850,"Tumwater Supercenter",walmart,46.994468,-122.919037,"5900 Littlerock Rd Sw",Tumwater,WA,98512,walmart-icon.png
14776,1164,"Columbia Supercenter",walmart,34.074009,-81.151125,"360 Harbison Blvd",Columbia,SC,29212,walmart-icon.png
14777,2450,"Bellingham Store",walmart,48.801663,-122.482164,"4420 Meridian St",Bellingham,WA,98226,walmart-icon.png
14780,634,"Camden Supercenter",walmart,34.250827,-80.649858,"2240 W Dekalb St",Camden,SC,29020,walmart-icon.png
14782,2249,"Chehalis Supercenter",walmart,46.678925,-122.979138,"1601 Nw Louisiana Ave",Chehalis,WA,98532,walmart-icon.png
14785,881,"Lexington Supercenter",walmart,33.998141,-81.224767,"5556 Sunset Blvd",Lexington,SC,29072,walmart-icon.png
14787,2037,"Aberdeen Supercenter",walmart,46.975337,-123.806587,"909 E Wishkah St",Aberdeen,WA,98520,walmart-icon.png
14792,4521,"Lexington Supercenter",walmart,33.910686,-81.230185,"1780 S Lake Dr",Lexington,SC,29073,walmart-icon.png
14793,2187,"Wenatchee Supercenter",walmart,47.454144,-120.339491,"2000 N Wenatchee Ave",Wenatchee,WA,98801,walmart-icon.png
14795,511,"Sumter Supercenter",walmart,33.9600883,-80.3896021,"1283 Broad St",Sumter,SC,29150,walmart-icon.png
14800,377,"Sumter Neighborhood Market",walmart,33.906164,-80.378092,"343 Pinewood Rd",Sumter,SC,29150,walmart-icon.png
14805,5383,"Sumter Neighborhood Market",walmart,33.938563,-80.369901,"615 Bultman Drive",Sumter,SC,29150,walmart-icon.png
14810,4440,"Irmo Supercenter",walmart,34.127358,-81.220387,"1180 Dutch Fork Rd",Irmo,SC,29063,walmart-icon.png
14816,616,"Orangeburg Supercenter",walmart,33.5241622,-80.8910894,"2795 North Rd",Orangeburg,SC,29118,walmart-icon.png
14822,3724,"Orangeburg Neighborhood Market",walmart,33.482413,-80.869633,"332 Stone Wall Jackson Blvd",Orangeburg,SC,29115,walmart-icon.png
14827,1017,"Manning Supercenter",walmart,33.700301,-80.226193,"2010 Paxville Hwy",Manning,SC,29102,walmart-icon.png
14830,4420,"Leesville Supercenter",walmart,33.917546,-81.529227,"115 E Church St",Leesville,SC,29070,walmart-icon.png
14835,624,"Newberry Supercenter",walmart,34.280231,-81.592295,"2812 Main St",Newberry,SC,29108,walmart-icon.png
14840,1135,"Hartsville Supercenter",walmart,34.35764,-80.064158,"1150 S 4th St",Hartsville,SC,29550,walmart-icon.png
14845,1030,"Lancaster Supercenter",walmart,34.7342509,-80.7847582,"805 Hwy 9 Bypass Wes",Lancaster,SC,29720,walmart-icon.png
14848,1603,"Chester Supercenter",walmart,34.699825,-81.1925399,"1691 J A Cochran Bypass",Chester,SC,29706,walmart-icon.png
14853,795,"Barnwell Supercenter",walmart,33.238248,-81.392282,"11391 Dunbarton Blvd",Barnwell,SC,29812,walmart-icon.png
14858,630,"Florence Supercenter",walmart,34.193435,-79.820891,"230 N Beltline Dr",Florence,SC,29501,walmart-icon.png
14863,7188,"Darlington Supercenter",walmart,34.285231,-79.856674,"251 Andover Place",Darlington,SC,29532,walmart-icon.png
14868,3638,"Florence Neighborhood Market",walmart,34.174603,-79.810763,"804 S. Cashua Drive",Florence,SC,29501,walmart-icon.png
14871,514,"Aiken Supercenter",walmart,33.518173,-81.71954,"2035 Whiskey Rd",Aiken,SC,29803,walmart-icon.png
14873,4487,"Aiken Supercenter",walmart,33.561222,-81.767261,"3581 Richland Ave W",Aiken,SC,29801,walmart-icon.png
14875,621,"Lake City Supercenter",walmart,33.892389,-79.751262,"900 Us 52 Hwy","Lake City",SC,29560,walmart-icon.png
14876,2703,"Florence Supercenter",walmart,34.155229,-79.764058,"2014 S Irby St",Florence,SC,29505,walmart-icon.png
14878,585,"Rock Hill Supercenter",walmart,34.94418,-80.963138,"2377 Dave Lyle Blvd","Rock Hill",SC,29730,walmart-icon.png
14880,6576,"North Augusta Supercenter",walmart,33.57249,-81.935064,"1041 Edgefield Rd","North Augusta",SC,29860,walmart-icon.png
14882,1146,"Moncks Corner Supercenter",walmart,33.210795,-79.985652,"511 N Highway 52","Moncks Corner",SC,29461,walmart-icon.png
14884,7180,"Waxhaw Neighborhood Market",walmart,34.9583671,-80.7561935,"2520 Cuthbertson Road",Waxhaw,NC,28173,walmart-icon.png
14886,1358,"Walterboro Supercenter",walmart,32.934593,-80.689624,"2110 Bells Hwy",Walterboro,SC,29488,walmart-icon.png
14888,6962,"Rock Hill Neighborhood Market",walmart,34.953135,-81.017952,"1225 Cherry Rd","Rock Hill",SC,29730,walmart-icon.png
14890,629,"Union Supercenter",walmart,34.726994,-81.641145,"513 N Duncan Byp",Union,SC,29379,walmart-icon.png
14892,642,"Cheraw Supercenter",walmart,34.701157,-79.931271,"1040 Chesterfield Hwy",Cheraw,SC,29520,walmart-icon.png
14894,1270,"North Augusta Supercenter",walmart,33.501291,-81.956733,"1201 Knox Ave","North Augusta",SC,29841,walmart-icon.png
14896,5279,"Summerville Neighborhood Market",walmart,33.012086,-80.239456,"1616 Central Ave",Summerville,SC,29483,walmart-icon.png
14898,4593,"Rock Hill Supercenter",walmart,34.979292,-81.089807,"4875 Old York Rd","Rock Hill",SC,29732,walmart-icon.png
14900,3359,"Fort Mill Neighborhood Market",walmart,35.005992,-80.930448,"500 N. Dobys Bridge Road","Fort Mill",SC,29715,walmart-icon.png
14902,4237,"Indian Land Supercenter",walmart,35.0107763,-80.8493703,"10048 Charlotte Hwy","Indian Land",SC,29707,walmart-icon.png
14904,1037,"Summerville Supercenter",walmart,33.034819,-80.153299,"1317 N Main St Ste A1",Summerville,SC,29483,walmart-icon.png
14906,877,"Monroe Supercenter",walmart,35.013875,-80.564009,"2406 W Roosevelt Blvd",Monroe,NC,28110,walmart-icon.png
14908,1144,"York Supercenter",walmart,34.983497,-81.213138,"970 E Liberty St",York,SC,29745,walmart-icon.png
14910,6174,"Summerville Neighborhood Market",walmart,32.9673153,-80.2036081,"10635 Dorchester Road",Summerville,SC,29485,walmart-icon.png
14912,2150,"San Diego Store",walmart,32.581551,-117.035491,"710 Dennery Road","San Diego",CA,92154,walmart-icon.png
14914,5938,"San Diego Store",walmart,32.586939,-117.08928,"575 Saturn Blvd","San Diego",CA,92154,walmart-icon.png
14916,5305,"Chula Vista Store",walmart,32.606887,-117.083014,"1150 Broadway","Chula Vista",CA,91911,walmart-icon.png
14918,3516,"Chula Vista Supercenter",walmart,32.631012,-116.968043,"1360 Eastlake Pkwy","Chula Vista",CA,91915,walmart-icon.png
14920,3947,"Chula Vista Supercenter",walmart,32.637851,-117.024932,"875 E. H St.","Chula Vista",CA,91910,walmart-icon.png
14922,2291,"Chula Vista Store",walmart,32.651877,-117.094289,"75 North Broadway","Chula Vista",CA,91910,walmart-icon.png
14924,5023,"National City Supercenter",walmart,32.6747692,-117.0993336,"1200 Highland Ave","National City",CA,91950,walmart-icon.png
14925,5638,"San Diego Neighborhood Market",walmart,32.705735,-117.144421,"2121 Imperial Avenue","San Diego",CA,92102,walmart-icon.png
14928,2479,"San Diego Supercenter",walmart,32.741663,-117.053585,"3412 College Ave","San Diego",CA,92115,walmart-icon.png
14929,5684,"La Mesa Neighborhood Market",walmart,32.7751045,-117.0077239,"8810 Grossmont Blvd","La Mesa",CA,91942,walmart-icon.png
14931,5140,"La Mesa Store",walmart,32.77773,-117.009055,"5500 Grossmont Center Dr","La Mesa",CA,91942,walmart-icon.png
14934,4169,"El Cajon Neighborhood Market",walmart,32.797303,-116.936688,"300 North Second Street","El Cajon",CA,92021,walmart-icon.png
14935,3524,"El Cajon Store",walmart,32.804338,-116.968341,"605 Fletcher Pkwy","El Cajon",CA,92020,walmart-icon.png
14937,2177,"San Diego Store",walmart,32.805348,-117.116408,"3382 Murphy Canyon Road","San Diego",CA,92123,walmart-icon.png
14939,2253,"El Cajon Supercenter",walmart,32.822626,-116.901748,"13487 Camino Canada","El Cajon",CA,92021,walmart-icon.png
14941,1917,"Santee Store",walmart,32.8423055,-116.9903086,"170 Town Center Parkway",Santee,CA,92071,walmart-icon.png
14942,5338,"San Diego Store",walmart,32.829543,-117.164984,"4840 Shawline St","San Diego",CA,92111,walmart-icon.png
14943,1700,"Poway Supercenter",walmart,32.9589415,-117.0376617,"13425 Community Road",Poway,CA,92064,walmart-icon.png
14944,5886,"Encinitas Supercenter",walmart,33.069254,-117.266426,"1550 Leucadia Blvd",Encinitas,CA,92024,walmart-icon.png
14945,3084,"Escondido Neighborhood Market",walmart,33.1300697,-117.0629723,"1266 East Valley Parkway",Escondido,CA,92027,walmart-icon.png
14946,5996,"Escondido Store",walmart,33.130137,-117.062977,"1330 East Grand Avenue",Escondido,CA,92027,walmart-icon.png
14947,3494,"San Marcos Store",walmart,33.135681,-117.123423,"732 Center Dr","San Marcos",CA,92069,walmart-icon.png
14948,2094,"Vista Supercenter",walmart,33.172662,-117.216625,"1800 University Dr",Vista,CA,92083,walmart-icon.png
14949,5075,"Oceanside Supercenter",walmart,33.177006,-117.297792,"3405 Marron Rd",Oceanside,CA,92056,walmart-icon.png
14950,2494,"Oceanside Supercenter",walmart,33.181302,-117.347277,"2100 Vista Way",Oceanside,CA,92054,walmart-icon.png
14951,5637,"Oceanside Neighborhood Market",walmart,33.200034,-117.374942,"1046 Mission Avenue",Oceanside,CA,92054,walmart-icon.png
14952,2245,"Oceanside Supercenter",walmart,33.241115,-117.29099,"705 College Blvd",Oceanside,CA,92057,walmart-icon.png
14953,2708,"Temecula Supercenter",walmart,33.480162,-117.094503,"32225 Temecula Pkwy",Temecula,CA,92592,walmart-icon.png
14954,2952,"Murrieta Store",walmart,33.552575,-117.192629,"41200 Murrieta Hot Springs Rd",Murrieta,CA,92562,walmart-icon.png
14955,2527,"San Clemente Store",walmart,33.455717,-117.606181,"951 Avenida Pico","San Clemente",CA,92673,walmart-icon.png
14956,2077,"Lake Elsinore Store",walmart,33.662186,-117.294445,"31700 Grape St","Lake Elsinore",CA,92532,walmart-icon.png
14958,1555,"El Centro Supercenter",walmart,32.813411,-115.577324,"2150 N Waterman Ave","El Centro",CA,92243,walmart-icon.png
14959,1853,"Hemet Supercenter",walmart,33.72639,-117.009917,"1231 S Sanderson Ave",Hemet,CA,92545,walmart-icon.png
14961,5008,"Hemet Neighborhood Market",walmart,33.745448,-116.979639,"859 W Florida Ave",Hemet,CA,92543,walmart-icon.png
14962,1859,"Calexico Supercenter",walmart,32.697644,-115.496576,"2540 Rockwood Ave",Calexico,CA,92231,walmart-icon.png
14963,5425,"San Jacinto Supercenter",walmart,33.767907,-116.95555,"1861 S San Jacinto Ave","San Jacinto",CA,92583,walmart-icon.png
14964,5335,"Brawley Supercenter",walmart,32.962431,-115.545833,"250 Wildcat Dr",Brawley,CA,92227,walmart-icon.png
14967,1747,"Perris Supercenter",walmart,33.806034,-117.229378,"1800 N Perris Blvd",Perris,CA,92571,walmart-icon.png
14968,3026,"Palm Desert Neighborhood Market",walmart,33.727992,-116.400709,"72314 Highway 111","Palm Desert",CA,92260,walmart-icon.png
14969,1805,"La Quinta Supercenter",walmart,33.703645,-116.281073,"79295 Us Hwy 111","La Quinta",CA,92253,walmart-icon.png
14970,2826,"Coachella Neighborhood Market",walmart,33.698811,-116.215202,"83053 Avenue 48",Coachella,CA,92236,walmart-icon.png
14972,8958,"Indio Neighborhood Market",walmart,33.728659,-116.266556,"44100 Jefferson St Ste F",Indio,CA,92201,walmart-icon.png
14973,1231,"Thornton Supercenter",walmart,39.876148,-104.986182,"9901 Grant St",Thornton,CO,80229,walmart-icon.png
14974,4747,"Northglenn Neighborhood Market",walmart,39.8916783,-104.9791069,"10755 Washington Street",Northglenn,CO,80233,walmart-icon.png
14975,2223,"Westminster Supercenter",walmart,39.86797,-105.056732,"9499 Sheridan Blvd",Westminster,CO,80031,walmart-icon.png
14976,5915,"Thornton Pickup only",walmart,39.884516,-104.966322,"1650 E. 104th Avenue",Thornton,CO,80233,walmart-icon.png
14977,3019,"Thornton Neighborhood Market",walmart,39.854942,-104.975091,"850 E 88th Ave",Thornton,CO,80229,walmart-icon.png
14978,4288,"Broomfield Supercenter",walmart,39.91673,-105.046458,"4651 W 121st Ave",Broomfield,CO,80020,walmart-icon.png
14979,6177,"Westminster Neighborhood Market",walmart,39.826783,-105.02339,"7170 N Federal Blvd",Westminster,CO,80030,walmart-icon.png
14980,3867,"Westminster Supercenter",walmart,39.940379,-104.990612,"200 W 136th Ave",Westminster,CO,80234,walmart-icon.png
14981,3824,"Westminster Supercenter",walmart,39.825294,-105.056397,"7155 Sheridan Blvd",Westminster,CO,80003,walmart-icon.png
14982,4567,"Brighton Supercenter",walmart,39.931149,-104.905963,"7101 E 128th Ave",Brighton,CO,80602,walmart-icon.png
14983,2752,"Commerce City Supercenter",walmart,39.804518,-104.928081,"5990 Dahlia St","Commerce City",CO,80022,walmart-icon.png
14984,5341,"Broomfield Supercenter",walmart,39.9259055,-105.1362376,"500 Summit Blvd",Broomfield,CO,80021,walmart-icon.png
14985,4734,"Arvada Supercenter",walmart,39.800682,-105.103991,"9400 Ralston Road",Arvada,CO,80002,walmart-icon.png
14986,5957,"Lakeside Supercenter",walmart,39.779213,-105.061212,"5957 W. 44th Ave",Lakeside,CO,80212,walmart-icon.png
14987,1045,"Lafayette Supercenter",walmart,40.006018,-105.105275,"745 Us Highway 287",Lafayette,CO,80026,walmart-icon.png
14988,3533,"Denver Supercenter",walmart,39.769707,-104.89727,"7800 Smith Rd",Denver,CO,80207,walmart-icon.png
14989,2125,"Lakewood Supercenter",walmart,39.742724,-105.079342,"7455 W Colfax Ave",Lakewood,CO,80214,walmart-icon.png
14990,4284,"Lakewood Supercenter",walmart,39.722231,-105.080398,"440 Wadsworth Blvd",Lakewood,CO,80226,walmart-icon.png
14991,1659,"Brighton Supercenter",walmart,39.969622,-104.82389,"60 W Bromley Ln",Brighton,CO,80601,walmart-icon.png
14992,6178,"Aurora Neighborhood Market",walmart,39.739322,-104.867555,"10400 E Colfax Avenue",Aurora,CO,80010,walmart-icon.png
14993,3127,"Denver Neighborhood Market",walmart,39.786271,-104.811498,"5141 Chambers Rd",Denver,CO,80239,walmart-icon.png
14994,5676,"Denver Supercenter",walmart,39.67762,-105.021464,"2770 W Evans Ave",Denver,CO,80219,walmart-icon.png
14995,3128,"Denver Neighborhood Market",walmart,39.690304,-104.8887,"1442 S Parker Rd",Denver,CO,80231,walmart-icon.png
14996,5334,"Aurora Supercenter",walmart,39.761672,-104.774366,"3301 Tower Rd",Aurora,CO,80011,walmart-icon.png
14997,2751,"Englewood Supercenter",walmart,39.656168,-104.994756,"601 Englewood Pkwy",Englewood,CO,80110,walmart-icon.png
14998,1492,"Aurora Supercenter",walmart,39.701967,-104.826211,"14000 E Exposition Ave",Aurora,CO,80012,walmart-icon.png
14999,1308,"Littleton Supercenter",walmart,39.636245,-105.083434,"7700 W Quincy Ave",Littleton,CO,80123,walmart-icon.png
15000,3566,"Denver Supercenter",walmart,39.651773,-104.879043,"9400 E Hampden Ave",Denver,CO,80231,walmart-icon.png
15001,4196,"Aurora Neighborhood Market",walmart,39.673462,-104.811188,"15240 E Iliff Avenue",Aurora,CO,80014,walmart-icon.png
15002,905,"Longmont Supercenter",walmart,40.158118,-105.048415,"2285 East Ken Pratt Blvd",Longmont,CO,80504,walmart-icon.png
15003,5049,"Littleton Supercenter",walmart,39.608122,-105.150934,"13420 W Coal Mine Ave",Littleton,CO,80127,walmart-icon.png
15004,2293,"Evergreen Supercenter",walmart,39.701098,-105.327102,"952 Swede Gulch Rd",Evergreen,CO,80439,walmart-icon.png
15005,3126,"Centennial Neighborhood Market",walmart,39.625265,-104.794046,"16746 E Smoky Hill Rd",Centennial,CO,80015,walmart-icon.png
15006,1689,"Aurora Supercenter",walmart,39.6139062,-104.8114187,"5650 S Chambers Rd",Aurora,CO,80015,walmart-icon.png
15007,3313,"Centennial Supercenter",walmart,39.590559,-104.861788,"10900 E Briarwood Ave",Centennial,CO,80112,walmart-icon.png
15008,3740,"Aurora Neighborhood Market",walmart,39.640148,-104.737674,"21475 E Quincy Ave",Aurora,CO,80015,walmart-icon.png
15009,5370,"Longmont Supercenter",walmart,40.205184,-105.09877,"2514 Main St",Longmont,CO,80504,walmart-icon.png
15010,1252,"Highlands Ranch Supercenter",walmart,39.562394,-104.910747,"6675 Business Center Dr","Highlands Ranch",CO,80130,walmart-icon.png
15011,5137,"Aurora Supercenter",walmart,39.606306,-104.704719,"6101 S Aurora Pkwy",Aurora,CO,80016,walmart-icon.png
15012,2892,"Parker Supercenter",walmart,39.513909,-104.768366,"11101 S Parker Rd",Parker,CO,80134,walmart-icon.png
15013,984,"Castle Rock Supercenter",walmart,39.406253,-104.860828,"133 Sam Walton Lane","Castle Rock",CO,80104,walmart-icon.png
15014,953,"Loveland Supercenter",walmart,40.404373,-105.046623,"1325 Denver Ave",Loveland,CO,80537,walmart-icon.png
15015,980,"Greeley Supercenter",walmart,40.386203,-104.719081,"3103 S 23rd Ave",Greeley,CO,80631,walmart-icon.png
15016,5051,"Greeley Supercenter",walmart,40.422824,-104.754675,"920 47th Ave",Greeley,CO,80634,walmart-icon.png
15017,1008,"Loveland Supercenter",walmart,40.456889,-105.080953,"250 W 65th St",Loveland,CO,80538,walmart-icon.png
15018,4639,"Elizabeth Supercenter",walmart,39.360377,-104.623497,"2100 Legacy Cir",Elizabeth,CO,80107,walmart-icon.png
15019,3177,"Fort Collins Supercenter",walmart,40.521308,-105.079542,"4625 S Mason St","Fort Collins",CO,80525,walmart-icon.png
15020,4599,"Timnath Supercenter",walmart,40.52654,-104.990371,"4500 Weitzel St",Timnath,CO,80547,walmart-icon.png
15021,2729,"Fort Collins Supercenter",walmart,40.586243,-105.054716,"1250 E Magnolia St","Fort Collins",CO,80524,walmart-icon.png
15022,3227,"Monument Supercenter",walmart,39.0671,-104.853802,"16218 Jackson Creek Pkwy",Monument,CO,80132,walmart-icon.png
15077,898,"Pecos Store",walmart,31.408738,-103.488371,"1903 S Cedar St",Pecos,TX,79772,walmart-icon.png
15102,2656,"Espanola Supercenter",walmart,36.015446,-106.067639,"1610 No. Riverside Drive",Espanola,NM,87532,walmart-icon.png
15104,829,"Santa Fe Store",walmart,35.652385,-105.999816,"3251 Cerrillos Rd","Santa Fe",NM,87507,walmart-icon.png
15106,3423,"Santa Fe Supercenter",walmart,35.619675,-106.031934,"5701 Herrera Drive","Santa Fe",NM,87507,walmart-icon.png
15108,873,"Taos Store",walmart,36.38752,-105.586256,"926 Paseo Del Pueblo Sur",Taos,NM,87571,walmart-icon.png
15111,1380,"Las Vegas Supercenter",walmart,35.619645,-105.227492,"2609 7th St","Las Vegas",NM,87701,walmart-icon.png
15112,3731,"Bernalillo Supercenter",walmart,35.3200531,-106.5719999,"460 Nm Highway #528",Bernalillo,NM,87004,walmart-icon.png
15114,4201,"Edgewood Supercenter",walmart,35.070864,-106.188075,"66 State Road #344",Edgewood,NM,87015,walmart-icon.png
15116,3517,"Rio Rancho Neighborhood Market",walmart,35.239523,-106.658132,"1115 Nm Highway 528 Se","Rio Rancho",NM,87124,walmart-icon.png
15118,3732,"Rio Rancho Supercenter",walmart,35.242941,-106.699666,"901 Unser Blvd Se","Rio Rancho",NM,87124,walmart-icon.png
15120,3512,"Albuquerque Neighborhood Market",walmart,35.129841,-106.516849,"11018 Montgomery Blvd Ne",Albuquerque,NM,87111,walmart-icon.png
15122,824,"Albuquerque Supercenter",walmart,35.144791,-106.549888,"8000 Academy Rd Ne",Albuquerque,NM,87111,walmart-icon.png
15124,1397,"Albuquerque Supercenter",walmart,35.204341,-106.656674,"10224 Coors Byp Nw",Albuquerque,NM,87114,walmart-icon.png
15126,5675,"Albuquerque Neighborhood Market",walmart,35.109522,-106.517784,"11001 Menaul Blvd Ne",Albuquerque,NM,87112,walmart-icon.png
15128,5491,"Albuquerque Supercenter",walmart,35.1068343,-106.5485899,"2266 Wyoming Blvd Ne",Albuquerque,NM,87112,walmart-icon.png
15130,3317,"Alameda Neighborhood Market",walmart,35.180495,-106.68984,"8511 Golf Course Rd Nw",Alameda,NM,87114,walmart-icon.png
15132,835,"Albuquerque Supercenter",walmart,35.079638,-106.52942,"400 Eubank Blvd Ne",Albuquerque,NM,87123,walmart-icon.png
15134,2451,"Albuquerque Neighborhood Market",walmart,35.104694,-106.592207,"4700 Cutler Ave Ne",Albuquerque,NM,87110,walmart-icon.png
15136,850,"Albuquerque Supercenter",walmart,35.111968,-106.608114,"2701 Carlisle Blvd Ne",Albuquerque,NM,87110,walmart-icon.png
15138,831,"Albuquerque Supercenter",walmart,35.076253,-106.587623,"301 San Mateo Blvd Se",Albuquerque,NM,87108,walmart-icon.png
15140,2924,"Albuquerque Supercenter",walmart,35.110211,-106.700726,"2550 Coors Bldv. Nw",Albuquerque,NM,87120,walmart-icon.png
15142,4676,"Albuquerque Neighborhood Market",walmart,35.103046,-106.727972,"1820 Unser Boulevard Nw",Albuquerque,NM,87120,walmart-icon.png
15144,3385,"Albuquerque Neighborhood Market",walmart,35.054712,-106.739343,"9600 Sage Rd Sw",Albuquerque,NM,87121,walmart-icon.png
15146,5430,"Albuquerque Supercenter",walmart,35.02609,-106.710858,"3500 Coors Blvd Sw",Albuquerque,NM,87121,walmart-icon.png
15148,3596,"Los Lunas Supercenter",walmart,34.817298,-106.763155,"2250 Main St Nw","Los Lunas",NM,87031,walmart-icon.png
15460,4526,"Houston Supercenter",walmart,29.829851,-95.377074,"4412 North Fwy",Houston,TX,77022,walmart-icon.png
15461,5959,"Houston Supercenter",walmart,29.7728201,-95.401322,"111 Yale St",Houston,TX,77007,walmart-icon.png
15463,5612,"Houston Supercenter",walmart,29.7162189,-95.3129339,"2391 S Wayside Dr",Houston,TX,77023,walmart-icon.png
15465,3640,"Houston Supercenter",walmart,29.788756,-95.465145,"1118 Silber Rd",Houston,TX,77055,walmart-icon.png
15467,3584,"Houston Supercenter",walmart,29.723052,-95.465008,"5405 South Rice Avenue",Houston,TX,77081,walmart-icon.png
15469,1279,"Houston Supercenter",walmart,29.918005,-95.415615,"10411 N Freeway 45",Houston,TX,77037,walmart-icon.png
15471,1137,"Houston Supercenter",walmart,29.7680323,-95.1771043,"13750 East Fwy",Houston,TX,77015,walmart-icon.png
15473,2724,"Pasadena Supercenter",walmart,29.693435,-95.210378,"1107 Shaver St",Pasadena,TX,77506,walmart-icon.png
15475,3500,"Houston Supercenter",walmart,29.806025,-95.165177,"5655 E Sam Houston Pkwy N",Houston,TX,77015,walmart-icon.png
15477,2718,"Houston Store",walmart,29.676877,-95.457502,"9555 S Post Oak Rd",Houston,TX,77096,walmart-icon.png
15479,2257,"Houston Supercenter",walmart,29.8539052,-95.5090766,"13484 Northwest Fwy",Houston,TX,77040,walmart-icon.png
15481,4298,"Humble Supercenter",walmart,29.93649,-95.252718,"9235 N Sam Houston Pkwy E",Humble,TX,77396,walmart-icon.png
15483,2066,"Houston Supercenter",walmart,29.735485,-95.511692,"2727 Dunvale Rd",Houston,TX,77063,walmart-icon.png
15485,4416,"Houston Supercenter",walmart,29.913136,-95.486715,"13003 Tomball Pkwy",Houston,TX,77086,walmart-icon.png
15487,5094,"Houston Neighborhood Market",walmart,29.674438,-95.495469,"9700 Hillcroft St",Houston,TX,77096,walmart-icon.png
15489,3425,"Houston Supercenter",walmart,29.630807,-95.237624,"9598 Rowlett Rd",Houston,TX,77075,walmart-icon.png
15491,1409,"Houston Supercenter",walmart,29.7932,-95.564858,"10750 Westview Dr",Houston,TX,77043,walmart-icon.png
15493,752,"Pasadena Supercenter",walmart,29.646612,-95.161375,"5200 Fairmont Pkwy",Pasadena,TX,77505,walmart-icon.png
15495,3542,"Houston Neighborhood Market",walmart,29.657006,-95.530023,"11242 S Gessner Dr",Houston,TX,77071,walmart-icon.png
15497,1837,"Humble Supercenter",walmart,30.009001,-95.283487,"9451 Fm 1960 Bypass",Humble,TX,77338,walmart-icon.png
15499,7309,"Humble Neighborhood Market",walmart,29.9780086,-95.1931345,"12312 Will Clayton Pwy",Humble,TX,77346,walmart-icon.png
15501,3302,"Houston Supercenter",walmart,29.679267,-95.561318,"9460 W Sam Houston Pkwy S",Houston,TX,77099,walmart-icon.png
15503,872,"Pearland Supercenter",walmart,29.573345,-95.283131,"1919 N Main St",Pearland,TX,77581,walmart-icon.png
15505,3296,"Houston Supercenter",walmart,29.733259,-95.591395,"2700 S Kirkwood Rd",Houston,TX,77077,walmart-icon.png
15507,3572,"Pearland Supercenter",walmart,29.558144,-95.382651,"10505 Broadway St",Pearland,TX,77584,walmart-icon.png
15509,1103,"Houston Supercenter",walmart,29.998212,-95.484178,"3450 Fm 1960 Rd W",Houston,TX,77068,walmart-icon.png
15510,3509,"Houston Neighborhood Market",walmart,29.687403,-95.586073,"11755 Beechnut St",Houston,TX,77072,walmart-icon.png
15512,5116,"La Porte Supercenter",walmart,29.666925,-95.100045,"9025 Spencer Hwy","La Porte",TX,77571,walmart-icon.png
15514,744,"Humble Supercenter",walmart,29.995677,-95.176444,"6626 Fm 1960 Rd E",Humble,TX,77346,walmart-icon.png
15516,7361,"Pearland Neighborhood Market",walmart,29.5563504,-95.4157825,"12631 Broadway Street",Pearland,TX,77584,walmart-icon.png
15518,915,"Stafford Supercenter",walmart,29.644076,-95.57299,"11210 W Airport Blvd",Stafford,TX,77477,walmart-icon.png
15520,522,"Crosby Supercenter",walmart,29.894378,-95.065666,"14215 Fm 2100 Rd",Crosby,TX,77532,walmart-icon.png
15522,3297,"Houston Supercenter",walmart,29.919899,-95.602222,"12353 Fm 1960 Rd W",Houston,TX,77065,walmart-icon.png
15524,3510,"Pearland Supercenter",walmart,29.545992,-95.235878,"1710 Broadway St",Pearland,TX,77581,walmart-icon.png
15526,3452,"Houston Neighborhood Market",walmart,29.844264,-95.644835,"4810 Highway 6 N",Houston,TX,77084,walmart-icon.png
15528,5353,"Spring Neighborhood Market",walmart,30.064353,-95.405982,"24809 Aldine Westfield Road",Spring,TX,77373,walmart-icon.png
15530,772,"Houston Supercenter",walmart,29.721342,-95.647396,"3506 Highway 6 S",Houston,TX,77082,walmart-icon.png
15532,4466,"Sugar Land Neighborhood Market",walmart,29.652058,-95.617417,"13322 West Airport Blvd","Sugar Land",TX,77478,walmart-icon.png
15534,849,"Spring Supercenter",walmart,30.064712,-95.43044,"155 Louetta Xing",Spring,TX,77373,walmart-icon.png
15536,1040,"Houston Supercenter",walmart,29.876999,-95.651738,"15955 Fm 529 Rd",Houston,TX,77095,walmart-icon.png
15538,1062,"Friendswood Supercenter",walmart,29.551853,-95.159295,"150 W El Dorado Blvd",Friendswood,TX,77546,walmart-icon.png
15540,3579,"Kingwood Neighborhood Market",walmart,30.069345,-95.214509,"2165 Northpark Dr",Kingwood,TX,77339,walmart-icon.png
15542,2505,"Missouri City Supercenter",walmart,29.573505,-95.568028,"5501 Highway 6","Missouri City",TX,77459,walmart-icon.png
15544,5449,"Missouri City Supercenter",walmart,29.536603,-95.516725,"9929 Hwy 6","Missouri City",TX,77459,walmart-icon.png
15546,3506,"Cypress Neighborhood Market",walmart,29.981305,-95.610473,"13742 N Eldridge Pkwy",Cypress,TX,77429,walmart-icon.png
15547,5045,"Tomball Supercenter",walmart,30.014156,-95.595099,"22605 State Highway 249",Tomball,TX,77375,walmart-icon.png
15548,194,"Baytown Supercenter",walmart,29.7763429,-94.9743933,"4900 Garth Rd",Baytown,TX,77521,walmart-icon.png
15549,7357,"Cypress Neighborhood Market",walmart,29.8979437,-95.6831967,"8208 Barker Cypress Rd",Cypress,TX,77433,walmart-icon.png
15550,5287,"Spring Supercenter",walmart,30.077376,-95.512657,"21150 Kuykendahl Rd",Spring,TX,77379,walmart-icon.png
15551,2993,"Sugar Land Supercenter",walmart,29.61355,-95.644533,"345 Highway 6","Sugar Land",TX,77478,walmart-icon.png
15911,1272,"Snyder Supercenter",walmart,32.695707,-100.920992,"5110 College Ave",Snyder,TX,79549,walmart-icon.png
15914,513,"Big Spring Supercenter",walmart,32.227804,-101.467786,"201 W Marcy Dr","Big Spring",TX,79720,walmart-icon.png
16391,1844,"Toms River Store",walmart,39.9756642,-74.2382847,"950 Route 37 W","Toms River",NJ,08755,walmart-icon.png
16406,2068,"Levittown Supercenter",walmart,40.141962,-74.822463,"180 Levittown Ctr",Levittown,PA,19055,walmart-icon.png
16674,2040,"Burlington Supercenter",walmart,40.047499,-74.8427,"2106 Mount Holly Rd",Burlington,NJ,08016,walmart-icon.png
16681,5414,"Lanoka Harbor Supercenter",walmart,39.85866,-74.179277,"580 Us Highway 9","Lanoka Harbor",NJ,08734,walmart-icon.png
16699,2841,"Lumberton Store",walmart,39.977436,-74.768533,"1740 Route 38",Lumberton,NJ,08048,walmart-icon.png
16705,5131,"Bensalem Store",walmart,40.136561,-74.967566,"3461 Horizon Blvd",Bensalem,PA,19053,walmart-icon.png
18919,2906,"Riverhead Store",walmart,40.92474,-72.711673,"1890 Old Country Rd",Riverhead,NY,11901,walmart-icon.png
23068,4618,"League City Neighborhood Market",walmart,29.4990441,-95.1255913,"2625 W Main Street","League City",TX,77573,walmart-icon.png
23077,2439,"Baytown Supercenter",walmart,29.8171691,-94.8968336,"8700 N Highway 146",Baytown,TX,77523,walmart-icon.png
23079,3298,"Kemah Supercenter",walmart,29.534829,-95.01829,"255 Fm 518 Rd",Kemah,TX,77565,walmart-icon.png
23097,5388,"League City Supercenter",walmart,29.470187,-95.0898,"1701 W Fm 646 Rd","League City",TX,77573,walmart-icon.png
23100,297,"Porter Supercenter",walmart,30.106968,-95.233615,"23561 Us Hwy 59",Porter,TX,77365,walmart-icon.png
23113,462,"Alvin Supercenter",walmart,29.421683,-95.230798,"400 Highway 35 Byp N",Alvin,TX,77511,walmart-icon.png
25217,2568,"Panorama City Store",walmart,34.222633,-118.449536,"8333 Van Nuys Blvd","Panorama City",CA,91402,walmart-icon.png
25218,5605,"Panorama City Neighborhood Market",walmart,34.2344724,-118.4486726,"14530 Nordhoff St","Panorama City",CA,91402,walmart-icon.png
25219,5686,"Burbank Supercenter",walmart,34.188222,-118.32521,"1301 N Victory Pl",Burbank,CA,91502,walmart-icon.png
25220,5152,"West Hills Store",walmart,34.188122,-118.625264,"6433 Fallbrook Ave","West Hills",CA,91307,walmart-icon.png
25221,5604,"Hawthorne Neighborhood Market",walmart,33.900143,-118.362426,"14441 Inglewood Ave",Hawthorne,CA,90250,walmart-icon.png
25222,2526,"Porter Ranch Supercenter",walmart,34.2776293,-118.5669947,"19821 Rinaldi St","Porter Ranch",CA,91326,walmart-icon.png
25228,3147,"Simi Valley Neighborhood Market",walmart,34.2757157,-118.7077044,"2204 Tapo Street","Simi Valley",CA,93063,walmart-icon.png
25233,2297,"Stevenson Ranch Store",walmart,34.383447,-118.569255,"25450 The Old Rd","Stevenson Ranch",CA,91381,walmart-icon.png
